__time,/psm_joint_telemetry/header/stamp,/psm_joint_telemetry/insertion/effort,/psm_joint_telemetry/insertion/position,/psm_joint_telemetry/insertion/velocity,/psm_joint_telemetry/pitch/effort,/psm_joint_telemetry/pitch/position,/psm_joint_telemetry/pitch/velocity,/psm_joint_telemetry/roll/effort,/psm_joint_telemetry/roll/position,/psm_joint_telemetry/roll/velocity
1747398433.593456,45.514000000,0.000000000,0.000000000,0.000000000,0.000000000,-20.468761444,-105.571563721,0.000000000,-19.965000153,16.049995422
1747398433.595974,45.516000000,0.000000000,0.000000000,0.000000000,0.000000000,-20.468761444,-105.571731567,0.000000000,-19.965000153,16.049995422
1747398433.598425,45.519000000,0.000000000,0.000000000,0.000000000,0.000000000,-20.468761444,-105.571899414,0.000000000,-19.965000153,16.049995422
1747398433.600904,45.521000000,0.000000000,0.000000000,0.000000000,0.000000000,-20.468761444,-105.572052002,0.000000000,-19.965000153,16.049995422
1747398433.603427,45.524000000,0.000000000,0.000000000,0.000000000,0.000000000,-20.468761444,-105.572219849,0.000000000,-19.965000153,16.049995422
1747398433.605882,45.526000000,0.000000000,0.000000000,0.000000000,0.000000000,-20.468761444,-105.572387695,0.000000000,-19.965000153,16.049995422
1747398433.608390,45.529000000,0.000000000,0.000000000,0.000000000,0.000000000,-20.468761444,-105.572555542,0.000000000,-19.965000153,16.049995422
1747398433.610829,45.531000000,0.000000000,0.000000000,0.000000000,0.000000000,-20.468761444,-105.572723389,0.000000000,-19.965000153,16.049995422
1747398433.613201,45.534000000,0.000000000,0.000000000,0.000000000,0.000000000,-20.468761444,-105.572875977,0.000000000,-19.965000153,16.049995422
1747398433.615686,45.536000000,0.000000000,0.000000000,0.000000000,0.000000000,-20.468761444,-105.573028564,0.000000000,-19.965000153,16.049995422
1747398433.618174,45.538000000,0.000000000,0.000000000,0.000000000,0.000000000,-20.468761444,-105.573196411,0.000000000,-19.965000153,16.049995422
1747398433.620579,45.541000000,0.000000000,0.000000000,0.000000000,0.000000000,-20.468761444,-105.573364258,0.000000000,-19.965000153,16.049995422
1747398433.622961,45.543000000,0.000000000,0.000000000,0.000000000,0.000000000,-20.468761444,-105.573532104,0.000000000,-19.965000153,16.049995422
1747398433.625499,45.546000000,0.000000000,0.000000000,0.000000000,0.000000000,-20.468761444,-105.573684692,0.000000000,-19.965000153,16.049995422
1747398433.627799,45.548000000,0.000000000,0.000000000,0.000000000,0.000000000,-20.468761444,-105.573852539,0.000000000,-19.965000153,16.049995422
1747398433.630214,45.550000000,0.000000000,0.000000000,0.000000000,0.000000000,-20.468761444,-105.574005127,0.000000000,-19.965000153,16.049995422
1747398433.632492,45.553000000,0.000000000,0.000000000,0.000000000,0.000000000,-20.468761444,-105.574157715,0.000000000,-19.965000153,16.049995422
1747398433.634849,45.555000000,0.000000000,0.000000000,0.000000000,0.000000000,-20.468761444,-105.574310303,0.000000000,-19.965000153,16.049995422
1747398433.637180,45.558000000,0.000000000,0.000000000,0.000000000,0.000000000,-20.468761444,-105.574478149,0.000000000,-19.965000153,16.049995422
1747398433.639533,45.560000000,0.000000000,0.000000000,0.000000000,0.000000000,-20.468761444,-105.574630737,0.000000000,-19.965000153,16.049995422
1747398433.641920,45.562000000,0.000000000,0.000000000,0.000000000,0.000000000,-20.468761444,-105.574783325,0.000000000,-19.965000153,16.049995422
1747398433.644296,45.565000000,0.000000000,0.000000000,0.000000000,0.000000000,-20.468761444,-105.574935913,0.000000000,-19.965000153,16.049995422
1747398433.646657,45.567000000,0.000000000,0.000000000,0.000000000,0.000000000,-20.468761444,-105.575103760,0.000000000,-19.965000153,16.049995422
1747398433.649021,45.569000000,0.000000000,0.000000000,0.000000000,0.000000000,-20.468761444,-105.575256348,0.000000000,-19.965000153,16.049995422
1747398433.651370,45.572000000,0.000000000,0.000000000,0.000000000,0.000000000,-20.468761444,-105.575408936,0.000000000,-19.965000153,16.049995422
1747398433.653760,45.574000000,0.000000000,0.000000000,0.000000000,0.000000000,-20.468761444,-105.575561523,0.000000000,-19.965000153,16.049995422
1747398433.656136,45.576000000,0.000000000,0.000000000,0.000000000,0.000000000,-20.468761444,-105.575729370,0.000000000,-19.965000153,16.049995422
1747398433.658525,45.579000000,0.000000000,0.000000000,0.000000000,0.000000000,-20.468761444,-105.575881958,0.000000000,-19.965000153,16.049995422
1747398433.660847,45.581000000,0.000000000,0.000000000,0.000000000,0.000000000,-20.468761444,-105.576034546,0.000000000,-19.965000153,16.049995422
1747398433.663184,45.584000000,0.000000000,0.000000000,0.000000000,0.000000000,-20.468761444,-105.576187134,0.000000000,-19.965000153,16.049995422
1747398433.665550,45.586000000,0.000000000,0.000000000,0.000000000,0.000000000,-20.468761444,-105.576354980,0.000000000,-19.965000153,16.049995422
1747398433.667917,45.588000000,0.000000000,0.000000000,0.000000000,0.000000000,-20.468761444,-105.576507568,0.000000000,-19.965000153,16.049995422
1747398433.670303,45.591000000,0.000000000,0.000000000,0.000000000,0.000000000,-20.468761444,-105.576660156,0.000000000,-19.965000153,16.049995422
1747398433.672687,45.593000000,0.000000000,0.000000000,0.000000000,0.000000000,-20.468761444,-105.576828003,0.000000000,-19.965000153,16.049995422
1747398433.675195,45.595000000,0.000000000,0.000000000,0.000000000,0.000000000,-20.468761444,-105.576980591,0.000000000,-19.965000153,16.049995422
1747398433.677562,45.598000000,0.000000000,0.000000000,0.000000000,0.000000000,-20.468761444,-105.577148438,0.000000000,-19.965000153,16.049995422
1747398433.679918,45.600000000,0.000000000,0.000000000,0.000000000,0.000000000,-20.468761444,-105.577301025,0.000000000,-19.965000153,16.049995422
1747398433.682288,45.603000000,0.000000000,0.000000000,0.000000000,0.000000000,-20.468761444,-105.577453613,0.000000000,-19.965000153,16.049995422
1747398433.684658,45.605000000,0.000000000,0.000000000,0.000000000,0.000000000,-20.468761444,-105.577621460,0.000000000,-19.965000153,16.049995422
1747398433.687032,45.607000000,0.000000000,0.000000000,0.000000000,0.000000000,-20.468761444,-105.577774048,0.000000000,-19.965000153,16.049995422
1747398433.689412,45.610000000,0.000000000,0.000000000,0.000000000,0.000000000,-20.468761444,-105.577926636,0.000000000,-19.965000153,16.049995422
1747398433.691808,45.612000000,0.000000000,0.000000000,0.000000000,0.000000000,-20.468761444,-105.578094482,0.000000000,-19.965000153,16.049995422
1747398433.694174,45.614000000,0.000000000,0.000000000,0.000000000,0.000000000,-20.468761444,-105.578247070,0.000000000,-19.965000153,16.049995422
1747398433.696536,45.617000000,0.000000000,0.000000000,0.000000000,0.000000000,-20.468761444,-105.578399658,0.000000000,-19.965000153,16.049995422
1747398433.698924,45.619000000,0.000000000,0.000000000,0.000000000,0.000000000,-20.468761444,-105.578552246,0.000000000,-19.965000153,16.049995422
1747398433.701345,45.622000000,0.000000000,0.000000000,0.000000000,0.000000000,-20.468761444,-105.578720093,0.000000000,-19.965000153,16.049995422
1747398433.703768,45.624000000,0.000000000,0.000000000,0.000000000,0.000000000,-20.468761444,-105.578887939,0.000000000,-19.965000153,16.049995422
1747398433.706182,45.627000000,0.000000000,0.000000000,0.000000000,0.000000000,-20.468761444,-105.579040527,0.000000000,-19.965000153,16.049995422
1747398433.708653,45.629000000,0.000000000,0.000000000,0.000000000,0.000000000,-20.468761444,-105.579193115,0.000000000,-19.965000153,16.049995422
1747398433.710973,45.631000000,0.000000000,0.000000000,0.000000000,0.000000000,-20.468761444,-105.579360962,0.000000000,-19.965000153,16.049995422
1747398433.713281,45.634000000,0.000000000,0.000000000,0.000000000,0.000000000,-20.468761444,-105.579513550,0.000000000,-19.965000153,16.049995422
1747398433.715657,45.636000000,0.000000000,0.000000000,0.000000000,0.000000000,-20.468761444,-105.579666138,0.000000000,-19.965000153,16.049995422
1747398433.718022,45.638000000,0.000000000,0.000000000,0.000000000,0.000000000,-20.468761444,-105.579818726,0.000000000,-19.965000153,16.049995422
1747398433.720468,45.641000000,0.000000000,0.000000000,0.000000000,0.000000000,-20.468761444,-105.579986572,0.000000000,-19.965000153,16.049995422
1747398433.722826,45.643000000,0.000000000,0.000000000,0.000000000,0.000000000,-20.468761444,-105.580139160,0.000000000,-19.965000153,16.049995422
1747398433.725229,45.645000000,0.000000000,0.000000000,0.000000000,0.000000000,-20.468761444,-105.580291748,0.000000000,-19.973999023,15.780029297
1747398433.727610,45.648000000,0.000000000,0.000000000,0.000000000,0.000000000,-20.468761444,-105.580459595,0.000000000,-19.973999023,15.780029297
1747398433.730017,45.650000000,0.000000000,0.000000000,0.000000000,0.000000000,-20.468761444,-105.580612183,0.000000000,-19.973999023,15.780029297
1747398433.732395,45.653000000,0.000000000,0.000000000,0.000000000,0.000000000,-20.468761444,-105.580780029,0.000000000,-19.973999023,15.780029297
1747398433.734757,45.655000000,0.000000000,0.000000000,0.000000000,0.000000000,-20.468761444,-105.580932617,0.000000000,-19.973999023,15.780029297
1747398433.737155,45.657000000,0.000000000,0.000000000,0.000000000,0.000000000,-20.468761444,-105.581085205,0.000000000,-19.973999023,15.780029297
1747398433.739536,45.660000000,0.000000000,0.000000000,0.000000000,0.000000000,-20.468761444,-105.581253052,0.000000000,-19.973999023,15.780029297
1747398433.741902,45.662000000,0.000000000,0.000000000,0.000000000,0.000000000,-20.468761444,-105.581405640,0.000000000,-19.973999023,15.780029297
1747398433.744282,45.665000000,0.000000000,0.000000000,0.000000000,0.000000000,-20.468761444,-105.581558228,0.000000000,-19.973999023,15.780029297
1747398433.746650,45.667000000,0.000000000,0.000000000,0.000000000,0.000000000,-20.468761444,-105.581726074,0.000000000,-19.973999023,15.780029297
1747398433.749051,45.669000000,0.000000000,0.000000000,0.000000000,0.000000000,-20.468761444,-105.581878662,0.000000000,-19.973999023,15.780029297
1747398433.751463,45.672000000,0.000000000,0.000000000,0.000000000,0.000000000,-20.468761444,-105.582046509,0.000000000,-19.973999023,15.780029297
1747398433.753914,45.674000000,0.000000000,0.000000000,0.000000000,0.000000000,-20.468761444,-105.582199097,0.000000000,-19.973999023,15.780029297
1747398433.756413,45.677000000,0.000000000,0.000000000,0.000000000,0.000000000,-20.468761444,-105.582366943,0.000000000,-19.973999023,15.780029297
1747398433.758892,45.679000000,0.000000000,0.000000000,0.000000000,0.000000000,-20.468761444,-105.582519531,0.000000000,-19.973999023,15.780029297
1747398433.761389,45.682000000,0.000000000,0.000000000,0.000000000,0.000000000,-20.468761444,-105.582687378,0.000000000,-19.973999023,15.780029297
1747398433.763742,45.684000000,0.000000000,0.000000000,0.000000000,0.000000000,-20.468761444,-105.582855225,0.000000000,-19.973999023,15.780029297
1747398433.766138,45.686000000,0.000000000,0.000000000,0.000000000,0.000000000,-20.468761444,-105.583007813,0.000000000,-19.973999023,15.780029297
1747398433.768565,45.689000000,0.000000000,0.000000000,0.000000000,0.000000000,-20.468761444,-105.583175659,0.000000000,-19.965000153,16.049995422
1747398433.770941,45.691000000,0.000000000,0.000000000,0.000000000,0.000000000,-20.468761444,-105.583328247,0.000000000,-19.965000153,16.049995422
1747398433.773331,45.694000000,0.000000000,0.000000000,0.000000000,0.000000000,-20.468761444,-105.583496094,0.000000000,-19.965000153,16.049995422
1747398433.775769,45.696000000,0.000000000,0.000000000,0.000000000,0.000000000,-20.468761444,-105.583648682,0.000000000,-19.965000153,16.049995422
1747398433.778212,45.698000000,0.000000000,0.000000000,0.000000000,0.000000000,-20.468761444,-105.583816528,0.000000000,-19.965000153,16.049995422
1747398433.780646,45.701000000,0.000000000,0.000000000,0.000000000,0.000000000,-20.468761444,-105.583969116,0.000000000,-19.965000153,16.049995422
1747398433.783201,45.703000000,0.000000000,0.000000000,0.000000000,0.000000000,-20.468761444,-105.584136963,0.000000000,-19.965000153,16.049995422
1747398433.785635,45.706000000,0.000000000,0.000000000,0.000000000,0.000000000,-20.468761444,-105.584304810,0.000000000,-19.965000153,16.049995422
1747398433.788149,45.708000000,0.000000000,0.000000000,0.000000000,0.000000000,-20.468761444,-105.584457397,0.000000000,-19.965000153,16.049995422
1747398433.790633,45.711000000,0.000000000,0.000000000,0.000000000,0.000000000,-20.468761444,-105.584625244,0.000000000,-19.965000153,16.049995422
1747398433.793161,45.713000000,0.000000000,0.000000000,0.000000000,0.000000000,-20.468761444,-105.584793091,0.000000000,-19.965000153,16.049995422
1747398433.795681,45.716000000,0.000000000,0.000000000,0.000000000,0.000000000,-20.468761444,-105.584960938,0.000000000,-19.965000153,16.049995422
1747398433.798134,45.718000000,0.000000000,0.000000000,0.000000000,0.000000000,-20.468761444,-105.585128784,0.000000000,-19.965000153,16.049995422
1747398433.800547,45.721000000,0.000000000,0.000000000,0.000000000,0.000000000,-20.468761444,-105.585281372,0.000000000,-19.965000153,-13.950004578
1747398433.802974,45.723000000,0.000000000,0.000000000,0.000000000,0.000000000,-20.468761444,-105.585449219,0.000000000,-19.955999374,-13.679981232
1747398433.805449,45.726000000,0.000000000,0.000000000,0.000000000,0.000000000,-20.468761444,-105.585617065,0.000000000,-19.937999725,-13.139991760
1747398433.807930,45.728000000,0.000000000,0.000000000,0.000000000,0.000000000,-20.468761444,-105.585769653,0.000000000,-19.937999725,-13.139991760
1747398433.810419,45.731000000,0.000000000,0.000000000,0.000000000,0.000000000,-20.468761444,-105.585937500,0.000000000,-19.937999725,-13.139991760
1747398433.812829,45.733000000,0.000000000,0.000000000,0.000000000,0.000000000,-20.468761444,-105.586105347,0.000000000,-19.937999725,-13.139991760
1747398433.815286,45.736000000,0.000000000,0.000000000,0.000000000,0.000000000,-20.468761444,-105.586273193,0.000000000,-19.928998947,-12.869968414
1747398433.817714,45.738000000,0.000000000,0.000000000,0.000000000,0.000000000,-20.468761444,-105.586425781,0.000000000,-19.920000076,-12.600002289
1747398433.820217,45.740000000,0.000000000,0.000000000,0.000000000,0.000000000,-20.468761444,-105.586593628,0.000000000,-19.910999298,-12.329978943
1747398433.822670,45.743000000,0.000000000,0.000000000,0.000000000,0.000000000,-20.468761444,-105.586761475,0.000000000,-19.910999298,-12.329978943
1747398433.825241,45.745000000,0.000000000,0.000000000,0.000000000,0.000000000,-20.468761444,-105.586914063,0.000000000,-19.902000427,-12.060012817
1747398433.827700,45.748000000,0.000000000,0.000000000,0.000000000,0.000000000,-20.468761444,-105.587081909,0.000000000,-19.892999649,-11.789989471
1747398433.830140,45.750000000,0.000000000,0.000000000,0.000000000,0.000000000,-20.468761444,-105.587249756,0.000000000,-19.883998871,-11.519966125
1747398433.832585,45.753000000,0.000000000,0.000000000,0.000000000,0.000000000,-20.468761444,-105.587417603,0.000000000,-19.875000000,-11.250000000
1747398433.835127,45.755000000,0.000000000,0.000000000,0.000000000,0.000000000,-20.468761444,-105.587570190,0.000000000,-19.865999222,-10.979976654
1747398433.837502,45.758000000,0.000000000,0.000000000,0.000000000,0.000000000,-20.468761444,-105.587738037,0.000000000,-19.857000351,-10.710010529
1747398433.839964,45.760000000,0.000000000,0.000000000,0.000000000,0.000000000,-20.468761444,-105.587905884,0.000000000,-19.847999573,-10.439987183
1747398433.842498,45.763000000,0.000000000,0.000000000,0.000000000,0.000000000,-20.468761444,-105.588058472,0.000000000,-19.839000702,-10.170021057
1747398433.844978,45.765000000,0.000000000,0.000000000,0.000000000,0.000000000,-20.468761444,-105.588226318,0.000000000,-19.829999924,-9.899997711
1747398433.847377,45.768000000,0.000000000,0.000000000,0.000000000,0.000000000,-20.468761444,-105.588394165,0.000000000,-19.820999146,-9.629974365
1747398433.849834,45.770000000,0.000000000,0.000000000,0.000000000,0.000000000,-20.468761444,-105.588546753,0.000000000,-19.820999146,-9.629974365
1747398433.852236,45.772000000,0.000000000,0.000000000,0.000000000,0.000000000,-20.468761444,-105.588714600,0.000000000,-19.812000275,-9.360008240
1747398433.854628,45.775000000,0.000000000,0.000000000,0.000000000,0.000000000,-20.468761444,-105.588882446,0.000000000,-19.802999496,-9.089984894
1747398433.857077,45.777000000,0.000000000,0.000000000,0.000000000,0.000000000,-20.468761444,-105.589035034,0.000000000,-19.794000626,-8.820018768
1747398433.859478,45.780000000,0.000000000,0.000000000,0.000000000,0.000000000,-20.468761444,-105.589202881,0.000000000,-19.784999847,-8.549995422
1747398433.861888,45.782000000,0.000000000,0.000000000,0.000000000,0.000000000,-20.468761444,-105.589355469,0.000000000,-19.775999069,-8.279972076
1747398433.864322,45.785000000,0.000000000,0.000000000,0.000000000,0.000000000,-20.468761444,-105.589523315,0.000000000,-19.767000198,-8.010005951
1747398433.866778,45.787000000,0.000000000,0.000000000,0.000000000,0.000000000,-20.468761444,-105.589675903,0.000000000,-19.757999420,-7.739982605
1747398433.869255,45.790000000,0.000000000,0.000000000,0.000000000,0.000000000,-20.468761444,-105.589843750,0.000000000,-19.749000549,-7.470016479
1747398433.871754,45.792000000,0.000000000,0.000000000,0.000000000,0.000000000,-20.468761444,-105.590011597,0.000000000,-19.739999771,22.800006866
1747398433.874225,45.795000000,0.000000000,0.000000000,0.000000000,0.000000000,-20.468761444,-105.590179443,0.000000000,-19.749000549,22.529983521
1747398433.876684,45.797000000,0.000000000,0.000000000,0.000000000,0.000000000,-20.468761444,-105.590347290,0.000000000,-19.749000549,22.529983521
1747398433.879165,45.799000000,0.000000000,0.000000000,0.000000000,0.000000000,-20.468761444,-105.590499878,0.000000000,-19.739999771,22.800006866
1747398433.881670,45.802000000,0.000000000,0.000000000,0.000000000,0.000000000,-20.468761444,-105.590667725,0.000000000,-19.730998993,23.070030212
1747398433.884130,45.804000000,0.000000000,0.000000000,0.000000000,0.000000000,-20.468761444,-105.590835571,0.000000000,-19.730998993,23.070030212
1747398433.886501,45.807000000,0.000000000,0.000000000,0.000000000,0.000000000,-20.468761444,-105.590988159,0.000000000,-19.730998993,23.070030212
1747398433.888879,45.809000000,0.000000000,0.000000000,0.000000000,0.000000000,-20.468761444,-105.591156006,0.000000000,-19.722000122,23.339996338
1747398433.891267,45.812000000,0.000000000,0.000000000,0.000000000,0.000000000,-20.468761444,-105.591308594,0.000000000,-19.722000122,23.339996338
1747398433.893676,45.814000000,0.000000000,0.000000000,0.000000000,0.000000000,-20.468761444,-105.591461182,0.000000000,-19.722000122,23.339996338
1747398433.896285,45.816000000,0.000000000,0.000000000,0.000000000,0.000000000,-20.468761444,-105.591629028,0.000000000,-19.722000122,23.339996338
1747398433.898700,45.819000000,0.000000000,0.000000000,0.000000000,0.000000000,-20.468761444,-105.591796875,0.000000000,-19.722000122,23.339996338
1747398433.901116,45.821000000,0.000000000,0.000000000,0.000000000,0.000000000,-20.468761444,-105.591964722,0.000000000,-19.722000122,23.339996338
1747398433.903553,45.824000000,0.000000000,0.000000000,0.000000000,0.000000000,-20.468761444,-105.592117310,0.000000000,-19.722000122,23.339996338
1747398433.905955,45.826000000,0.000000000,0.000000000,0.000000000,0.000000000,-20.468761444,-105.592285156,0.000000000,-19.722000122,23.339996338
1747398433.908406,45.829000000,0.000000000,0.000000000,0.000000000,0.000000000,-20.468761444,-105.592437744,0.000000000,-19.722000122,23.339996338
1747398433.910794,45.831000000,0.000000000,0.000000000,0.000000000,0.000000000,-20.468761444,-105.592605591,0.000000000,-19.722000122,23.339996338
1747398433.913156,45.833000000,0.000000000,0.000000000,0.000000000,0.000000000,-20.468761444,-105.592758179,0.000000000,-19.722000122,23.339996338
1747398433.915550,45.836000000,0.000000000,0.000000000,0.000000000,0.000000000,-20.468761444,-105.592926025,0.000000000,-19.722000122,23.339996338
1747398433.917922,45.838000000,0.000000000,0.000000000,0.000000000,0.000000000,-20.482261658,-106.790634155,0.000000000,-19.722000122,23.339996338
1747398433.920337,45.841000000,0.000000000,0.000000000,0.000000000,0.000000000,-20.482261658,-108.572479248,0.000000000,-19.722000122,23.339996338
1747398433.922720,45.843000000,0.000000000,0.000000000,0.000000000,0.000000000,-20.482261658,-108.572647095,0.000000000,-19.722000122,23.339996338
1747398433.925160,45.845000000,0.000000000,0.000000000,0.000000000,0.000000000,-20.482261658,-108.572814941,0.000000000,-19.722000122,23.339996338
1747398433.927536,45.848000000,0.000000000,0.000000000,0.000000000,0.000000000,-20.482261658,-108.572982788,0.000000000,-19.722000122,23.339996338
1747398433.929892,45.850000000,0.000000000,0.000000000,0.000000000,0.000000000,-20.482261658,-108.573135376,0.000000000,-19.722000122,23.339996338
1747398433.932270,45.853000000,0.000000000,0.000000000,0.000000000,0.000000000,-20.482261658,-108.573303223,0.000000000,-19.722000122,23.339996338
1747398433.934632,45.855000000,0.000000000,0.000000000,0.000000000,0.000000000,-20.482261658,-108.573455811,0.000000000,-19.722000122,23.339996338
1747398433.936996,45.857000000,0.000000000,0.000000000,0.000000000,0.000000000,-20.482261658,-108.573623657,0.000000000,-19.722000122,23.339996338
1747398433.939420,45.860000000,0.000000000,0.000000000,0.000000000,0.000000000,-20.482261658,-108.573791504,0.000000000,-19.722000122,23.339996338
1747398433.941787,45.862000000,0.000000000,0.000000000,0.000000000,0.000000000,-20.482261658,-108.573944092,0.000000000,-19.722000122,23.339996338
1747398433.944159,45.864000000,0.000000000,0.000000000,0.000000000,0.000000000,-20.482261658,-108.574111938,0.000000000,-19.722000122,23.339996338
1747398433.946562,45.867000000,0.000000000,0.000000000,0.000000000,0.000000000,-20.482261658,-108.574279785,0.000000000,-19.722000122,23.339996338
1747398433.948931,45.869000000,0.000000000,0.000000000,0.000000000,0.000000000,-20.482261658,-108.574432373,0.000000000,-19.722000122,23.339996338
1747398433.951306,45.872000000,0.000000000,0.000000000,0.000000000,0.000000000,-20.482261658,-108.574600220,0.000000000,-19.722000122,23.339996338
1747398433.953675,45.874000000,0.000000000,0.000000000,0.000000000,0.000000000,-20.482261658,-108.574752808,0.000000000,-19.722000122,23.339996338
1747398433.956048,45.876000000,0.000000000,0.000000000,0.000000000,0.000000000,-20.482261658,-108.574920654,0.000000000,-19.722000122,23.339996338
1747398433.958382,45.879000000,0.000000000,0.000000000,0.000000000,0.000000000,-20.482261658,-108.575088501,0.000000000,-19.722000122,23.339996338
1747398433.960758,45.881000000,0.000000000,0.000000000,0.000000000,0.000000000,-20.482261658,-108.575241089,0.000000000,-19.722000122,23.339996338
1747398433.963203,45.884000000,0.000000000,0.000000000,0.000000000,0.000000000,-20.468761444,-107.376373291,0.000000000,-19.722000122,23.339996338
1747398433.965642,45.886000000,0.000000000,0.000000000,0.000000000,0.000000000,-20.468761444,-105.596328735,0.000000000,-19.722000122,23.339996338
1747398433.968112,45.888000000,0.000000000,0.000000000,0.000000000,0.000000000,-20.482261658,-106.821762085,0.000000000,-19.722000122,23.339996338
1747398433.970523,45.891000000,0.000000000,0.000000000,0.000000000,0.000000000,-20.482261658,-108.575897217,0.000000000,-19.722000122,23.339996338
1747398433.972956,45.893000000,0.000000000,0.000000000,0.000000000,0.000000000,-20.468761444,-107.355117798,0.000000000,-19.722000122,-6.660003662
1747398433.975339,45.896000000,0.000000000,0.000000000,0.000000000,0.000000000,-20.468761444,-105.596984863,0.000000000,-19.704000473,-6.120014191
1747398433.977783,45.898000000,0.000000000,0.000000000,0.000000000,0.000000000,-20.468761444,-105.597137451,0.000000000,-19.677000046,-5.310001373
1747398433.980181,45.901000000,0.000000000,0.000000000,0.000000000,0.000000000,-20.468761444,-105.597305298,0.000000000,-19.685998917,-5.579967499
1747398433.982593,45.903000000,0.000000000,0.000000000,0.000000000,0.000000000,-20.468761444,-105.597457886,0.000000000,-19.677000046,-5.310001373
1747398433.985040,45.905000000,0.000000000,0.000000000,0.000000000,0.000000000,-20.468761444,-105.597610474,0.000000000,-19.667999268,-5.039978027
1747398433.987502,45.908000000,0.000000000,0.000000000,0.000000000,0.000000000,-20.468761444,-105.597778320,0.000000000,-19.659000397,-4.770011902
1747398433.990004,45.910000000,0.000000000,0.000000000,0.000000000,0.000000000,-20.468761444,-105.597946167,0.000000000,-19.649999619,-4.499988556
1747398433.992495,45.913000000,0.000000000,0.000000000,0.000000000,0.000000000,-20.468761444,-105.598114014,0.000000000,-19.641000748,-4.230022430
1747398433.995028,45.915000000,0.000000000,0.000000000,0.000000000,0.000000000,-20.468761444,-105.598281860,0.000000000,-19.631999969,-3.959999084
1747398433.997487,45.918000000,0.000000000,0.000000000,0.000000000,0.000000000,-20.482261658,-106.886032104,0.000000000,-19.622999191,-3.689975739
1747398433.999918,45.920000000,0.000000000,0.000000000,0.000000000,0.000000000,-20.482261658,-108.577850342,0.000000000,-19.614000320,-3.420009613
1747398434.002337,45.923000000,0.000000000,0.000000000,0.000000000,0.000000000,-20.468761444,-107.360687256,0.000000000,-19.604999542,-3.149986267
1747398434.004752,45.925000000,0.000000000,0.000000000,0.000000000,0.000000000,-20.468761444,-105.598937988,0.000000000,-19.586999893,-2.609996796
1747398434.007160,45.927000000,0.000000000,0.000000000,0.000000000,0.000000000,-20.468761444,-105.599090576,0.000000000,-19.577999115,-2.339973450
1747398434.009548,45.930000000,0.000000000,0.000000000,0.000000000,0.000000000,-20.468761444,-105.599258423,0.000000000,-19.569000244,-2.070007324
1747398434.012013,45.932000000,0.000000000,0.000000000,0.000000000,0.000000000,-20.468761444,-105.599411011,0.000000000,-19.559999466,-1.799983978
1747398434.014412,45.935000000,0.000000000,0.000000000,0.000000000,0.000000000,-20.468761444,-105.599578857,0.000000000,-19.551000595,-1.530017853
1747398434.016807,45.937000000,0.000000000,0.000000000,0.000000000,0.000000000,-20.468761444,-105.599731445,0.000000000,-19.541999817,-1.259994507
1747398434.019200,45.940000000,0.000000000,0.000000000,0.000000000,0.000000000,-20.468761444,-105.599899292,0.000000000,-19.532999039,-0.989971161
1747398434.021584,45.942000000,0.000000000,0.000000000,0.000000000,0.000000000,-20.468761444,-105.600051880,0.000000000,-19.524000168,-0.720005035
1747398434.024018,45.944000000,0.000000000,0.000000000,0.000000000,0.000000000,-20.468761444,-105.600204468,0.000000000,-19.514999390,-0.449981689
1747398434.026373,45.947000000,0.000000000,0.000000000,0.000000000,0.000000000,-20.468761444,-105.600372314,0.000000000,-19.506000519,-0.180015564
1747398434.028835,45.949000000,0.000000000,0.000000000,0.000000000,0.000000000,-20.468761444,-105.600524902,0.000000000,-19.506000519,-0.180015564
1747398434.031212,45.952000000,0.000000000,0.000000000,0.000000000,0.000000000,-20.468761444,-105.600692749,0.000000000,-19.496999741,0.090007782
1747398434.033556,45.954000000,0.000000000,0.000000000,0.000000000,0.000000000,-20.468761444,-105.600845337,0.000000000,-19.487998962,0.360031128
1747398434.035934,45.956000000,0.000000000,0.000000000,0.000000000,0.000000000,-20.468761444,-105.600997925,0.000000000,-19.479000092,0.629997253
1747398434.038338,45.959000000,0.000000000,0.000000000,0.000000000,0.000000000,-20.482261658,-106.780761719,0.000000000,-19.479000092,0.629997253
1747398434.040746,45.961000000,0.000000000,0.000000000,0.000000000,0.000000000,-20.482261658,-108.580566406,0.000000000,-19.469999313,0.900020599
1747398434.043155,45.963000000,0.000000000,0.000000000,0.000000000,0.000000000,-20.468761444,-107.378753662,0.000000000,-19.469999313,0.900020599
1747398434.045584,45.966000000,0.000000000,0.000000000,0.000000000,0.000000000,-20.482261658,-106.790267944,0.000000000,-19.469999313,0.900020599
1747398434.048036,45.968000000,0.000000000,0.000000000,0.000000000,0.000000000,-20.482261658,-108.581054688,0.000000000,-19.461000443,1.169986725
1747398434.050476,45.971000000,0.000000000,0.000000000,0.000000000,0.000000000,-20.482261658,-108.581222534,0.000000000,-19.461000443,1.169986725
1747398434.052930,45.973000000,0.000000000,0.000000000,0.000000000,0.000000000,-20.482261658,-108.581390381,0.000000000,-19.461000443,1.169986725
1747398434.055405,45.976000000,0.000000000,0.000000000,0.000000000,0.000000000,-20.482261658,-108.581558228,0.000000000,-19.461000443,1.169986725
1747398434.057926,45.978000000,0.000000000,0.000000000,0.000000000,0.000000000,-20.482261658,-108.581726074,0.000000000,-19.461000443,1.169986725
1747398434.060482,45.981000000,0.000000000,0.000000000,0.000000000,0.000000000,-20.468761444,-107.338867188,0.000000000,-19.461000443,1.169986725
1747398434.062821,45.983000000,0.000000000,0.000000000,0.000000000,0.000000000,-20.468761444,-105.602828979,0.000000000,-19.461000443,1.169986725
1747398434.065160,45.985000000,0.000000000,0.000000000,0.000000000,0.000000000,-20.482261658,-106.784835815,0.000000000,-19.461000443,1.169986725
1747398434.067585,45.988000000,0.000000000,0.000000000,0.000000000,0.000000000,-20.482261658,-108.582382202,0.000000000,-19.461000443,1.169986725
1747398434.069980,45.990000000,0.000000000,0.000000000,0.000000000,0.000000000,-20.482261658,-108.582550049,0.000000000,-19.461000443,1.169986725
1747398434.072379,45.993000000,0.000000000,0.000000000,0.000000000,0.000000000,-20.468761444,-107.392608643,0.000000000,-19.461000443,1.169986725
1747398434.074752,45.995000000,0.000000000,0.000000000,0.000000000,0.000000000,-20.468761444,-105.603637695,0.000000000,-19.461000443,1.169986725
1747398434.077128,45.997000000,0.000000000,0.000000000,0.000000000,0.000000000,-20.468761444,-105.603790283,0.000000000,-19.461000443,1.169986725
1747398434.079482,46.000000000,0.000000000,0.000000000,0.000000000,0.000000000,-20.468761444,-105.603942871,0.000000000,-19.461000443,1.169986725
1747398434.081874,46.002000000,0.000000000,0.000000000,0.000000000,0.000000000,-20.468761444,-105.604110718,0.000000000,-19.461000443,1.169986725
1747398434.084224,46.005000000,0.000000000,0.000000000,0.000000000,0.000000000,-20.468761444,-105.604263306,0.000000000,-19.461000443,1.169986725
1747398434.086594,46.007000000,0.000000000,0.000000000,0.000000000,0.000000000,-20.482261658,-106.761825562,0.000000000,-19.461000443,1.169986725
1747398434.088964,46.009000000,0.000000000,0.000000000,0.000000000,0.000000000,-20.482261658,-108.583831787,0.000000000,-19.461000443,1.169986725
1747398434.091380,46.012000000,0.000000000,0.000000000,0.000000000,0.000000000,-20.482261658,-108.583984375,0.000000000,-19.461000443,1.169986725
1747398434.093761,46.014000000,0.000000000,0.000000000,0.000000000,0.000000000,-20.482261658,-108.584152222,0.000000000,-19.461000443,1.169986725
1747398434.096164,46.016000000,0.000000000,0.000000000,0.000000000,0.000000000,-20.482261658,-108.584304810,0.000000000,-19.451999664,1.440010071
1747398434.098537,46.019000000,0.000000000,0.000000000,0.000000000,0.000000000,-20.482261658,-108.584472656,0.000000000,-19.451999664,1.440010071
1747398434.100998,46.021000000,0.000000000,0.000000000,0.000000000,0.000000000,-20.482261658,-108.584640503,0.000000000,-19.451999664,1.440010071
1747398434.103362,46.024000000,0.000000000,0.000000000,0.000000000,0.000000000,-20.482261658,-108.584808350,0.000000000,-19.443000793,1.709976196
1747398434.105741,46.026000000,0.000000000,0.000000000,0.000000000,0.000000000,-20.468761444,-107.382980347,0.000000000,-19.443000793,1.709976196
1747398434.108111,46.028000000,0.000000000,0.000000000,0.000000000,0.000000000,-20.468761444,-105.605880737,0.000000000,-19.443000793,1.709976196
1747398434.110499,46.031000000,0.000000000,0.000000000,0.000000000,0.000000000,-20.468761444,-105.606033325,0.000000000,-19.434000015,1.979999542
1747398434.112913,46.033000000,0.000000000,0.000000000,0.000000000,0.000000000,-20.482261658,-106.793319702,0.000000000,-19.434000015,1.979999542
1747398434.115281,46.036000000,0.000000000,0.000000000,0.000000000,0.000000000,-20.482261658,-108.585601807,0.000000000,-19.424999237,2.250022888
1747398434.117655,46.038000000,0.000000000,0.000000000,0.000000000,0.000000000,-20.468761444,-107.418350220,0.000000000,-19.424999237,2.250022888
1747398434.120028,46.040000000,0.000000000,0.000000000,0.000000000,0.000000000,-20.468761444,-105.606674194,0.000000000,-19.416000366,2.519989014
1747398434.122422,46.043000000,0.000000000,0.000000000,0.000000000,0.000000000,-20.468761444,-105.606842041,0.000000000,-19.416000366,2.519989014
1747398434.124772,46.045000000,0.000000000,0.000000000,0.000000000,0.000000000,-20.468761444,-105.606994629,0.000000000,-19.406999588,2.790012360
1747398434.127138,46.047000000,0.000000000,0.000000000,0.000000000,0.000000000,-20.468761444,-105.607147217,0.000000000,-19.398000717,3.059978485
1747398434.129492,46.050000000,0.000000000,0.000000000,0.000000000,0.000000000,-20.468761444,-105.607315063,0.000000000,-19.388999939,3.330001831
1747398434.131923,46.052000000,0.000000000,0.000000000,0.000000000,0.000000000,-20.468761444,-105.607467651,0.000000000,-19.379999161,3.600025177
1747398434.134418,46.055000000,0.000000000,0.000000000,0.000000000,0.000000000,-20.468761444,-105.607635498,0.000000000,-19.371000290,3.869991302
1747398434.136916,46.057000000,0.000000000,0.000000000,0.000000000,0.000000000,-20.468761444,-105.607788086,0.000000000,-19.361999512,4.140014648
1747398434.139438,46.060000000,0.000000000,0.000000000,0.000000000,0.000000000,-20.468761444,-105.607955933,0.000000000,-19.353000641,4.409980774
1747398434.141931,46.062000000,0.000000000,0.000000000,0.000000000,0.000000000,-20.468761444,-105.608123779,0.000000000,-19.343999863,4.680004120
1747398434.144419,46.065000000,0.000000000,0.000000000,0.000000000,0.000000000,-20.468761444,-105.608291626,0.000000000,-19.326000214,5.219993591
1747398434.146980,46.067000000,0.000000000,0.000000000,0.000000000,0.000000000,-20.468761444,-105.608459473,0.000000000,-19.316999435,5.490016937
1747398434.149434,46.070000000,0.000000000,0.000000000,0.000000000,0.000000000,-20.468761444,-105.608627319,0.000000000,-19.298999786,6.030006409
1747398434.151905,46.072000000,0.000000000,0.000000000,0.000000000,0.000000000,-20.468761444,-105.608779907,0.000000000,-19.281000137,6.569995880
1747398434.154396,46.075000000,0.000000000,0.000000000,0.000000000,0.000000000,-20.468761444,-105.608947754,0.000000000,-19.271999359,6.840019226
1747398434.156799,46.077000000,0.000000000,0.000000000,0.000000000,0.000000000,-20.468761444,-105.609115601,0.000000000,-19.253999710,7.380008698
1747398434.159279,46.080000000,0.000000000,0.000000000,0.000000000,0.000000000,-20.468761444,-105.609268188,0.000000000,-19.236000061,7.919998169
1747398434.161613,46.082000000,0.000000000,0.000000000,0.000000000,0.000000000,-20.468761444,-105.609436035,0.000000000,-19.218000412,8.459987640
1747398434.164005,46.084000000,0.000000000,0.000000000,0.000000000,0.000000000,-20.482261658,-106.795959473,0.000000000,-19.208999634,8.730010986
1747398434.166391,46.087000000,0.000000000,0.000000000,0.000000000,0.000000000,-20.482261658,-108.589004517,0.000000000,-19.190999985,9.270000458
1747398434.168761,46.089000000,0.000000000,0.000000000,0.000000000,0.000000000,-20.468761444,-107.413360596,0.000000000,-19.173000336,9.809989929
1747398434.171173,46.091000000,0.000000000,0.000000000,0.000000000,0.000000000,-20.482261658,-106.789672852,0.000000000,-19.155000687,10.349979401
1747398434.173503,46.094000000,0.000000000,0.000000000,0.000000000,0.000000000,-20.482261658,-108.589492798,0.000000000,-19.145999908,10.620002747
1747398434.175913,46.096000000,0.000000000,0.000000000,0.000000000,0.000000000,-20.482261658,-108.589645386,0.000000000,-19.128000259,11.159992218
1747398434.178287,46.099000000,0.000000000,0.000000000,0.000000000,0.000000000,-20.482261658,-108.589813232,0.000000000,-19.110000610,11.699981689
1747398434.180612,46.101000000,0.000000000,0.000000000,0.000000000,0.000000000,-20.468761444,-107.413406372,0.000000000,-19.100999832,11.970005035
1747398434.183022,46.103000000,0.000000000,0.000000000,0.000000000,0.000000000,-20.468761444,-105.610885620,0.000000000,-19.083000183,12.509994507
1747398434.185340,46.106000000,0.000000000,0.000000000,0.000000000,0.000000000,-20.482261658,-106.762222290,0.000000000,-19.073999405,12.780017853
1747398434.187702,46.108000000,0.000000000,0.000000000,0.000000000,0.000000000,-20.482261658,-108.590438843,0.000000000,-19.055999756,13.320007324
1747398434.190086,46.110000000,0.000000000,0.000000000,0.000000000,0.000000000,-20.482261658,-108.590606689,0.000000000,-19.047000885,13.589973450
1747398434.192422,46.113000000,0.000000000,0.000000000,0.000000000,0.000000000,-20.482261658,-108.590774536,0.000000000,-19.028999329,14.130020142
1747398434.194773,46.115000000,0.000000000,0.000000000,0.000000000,0.000000000,-20.482261658,-108.590927124,0.000000000,-19.020000458,14.399986267
1747398434.197151,46.117000000,0.000000000,0.000000000,0.000000000,0.000000000,-20.482261658,-108.591079712,0.000000000,-19.010999680,14.670009613
1747398434.199505,46.120000000,0.000000000,0.000000000,0.000000000,0.000000000,-20.468761444,-107.411651611,0.000000000,-19.002000809,14.939975739
1747398434.201865,46.122000000,0.000000000,0.000000000,0.000000000,0.000000000,-20.468761444,-105.612167358,0.000000000,-18.993000031,15.209999084
1747398434.204244,46.125000000,0.000000000,0.000000000,0.000000000,0.000000000,-20.482261658,-106.774353027,0.000000000,-18.983999252,15.480022430
1747398434.206620,46.127000000,0.000000000,0.000000000,0.000000000,0.000000000,-20.482261658,-108.591720581,0.000000000,-18.975000381,15.749988556
1747398434.208989,46.129000000,0.000000000,0.000000000,0.000000000,0.000000000,-20.482261658,-108.591888428,0.000000000,-18.965999603,16.020011902
1747398434.211387,46.132000000,0.000000000,0.000000000,0.000000000,0.000000000,-20.482261658,-108.592056274,0.000000000,-18.957000732,16.289978027
1747398434.213748,46.134000000,0.000000000,0.000000000,0.000000000,0.000000000,-20.482261658,-108.592208862,0.000000000,-18.947999954,16.560001373
1747398434.216142,46.136000000,0.000000000,0.000000000,0.000000000,0.000000000,-20.482261658,-108.592376709,0.000000000,-18.947999954,16.560001373
1747398434.218516,46.139000000,0.000000000,0.000000000,0.000000000,0.000000000,-20.482261658,-108.592529297,0.000000000,-18.938999176,16.830024719
1747398434.220889,46.141000000,0.000000000,0.000000000,0.000000000,0.000000000,-20.482261658,-108.592697144,0.000000000,-18.930000305,17.099990845
1747398434.223300,46.144000000,0.000000000,0.000000000,0.000000000,0.000000000,-20.482261658,-108.592864990,0.000000000,-18.930000305,17.099990845
1747398434.225770,46.146000000,0.000000000,0.000000000,0.000000000,0.000000000,-20.482261658,-108.593017578,0.000000000,-18.930000305,17.099990845
1747398434.228221,46.148000000,0.000000000,0.000000000,0.000000000,0.000000000,-20.482261658,-108.593185425,0.000000000,-18.920999527,17.370014191
1747398434.230657,46.151000000,0.000000000,0.000000000,0.000000000,0.000000000,-20.482261658,-108.593353271,0.000000000,-18.912000656,17.639980316
1747398434.233128,46.153000000,0.000000000,0.000000000,0.000000000,0.000000000,-20.482261658,-108.593521118,0.000000000,-18.912000656,17.639980316
1747398434.235566,46.156000000,0.000000000,0.000000000,0.000000000,0.000000000,-20.482261658,-108.593688965,0.000000000,-18.912000656,17.639980316
1747398434.238050,46.158000000,0.000000000,0.000000000,0.000000000,0.000000000,-20.482261658,-108.593856812,0.000000000,-18.912000656,17.639980316
1747398434.240546,46.161000000,0.000000000,0.000000000,0.000000000,0.000000000,-20.482261658,-108.594024658,0.000000000,-18.902999878,17.910003662
1747398434.242951,46.163000000,0.000000000,0.000000000,0.000000000,0.000000000,-20.482261658,-108.594192505,0.000000000,-18.902999878,17.910003662
1747398434.245464,46.166000000,0.000000000,0.000000000,0.000000000,0.000000000,-20.482261658,-108.594360352,0.000000000,-18.902999878,17.910003662
1747398434.247872,46.168000000,0.000000000,0.000000000,0.000000000,0.000000000,-20.482261658,-108.594528198,0.000000000,-18.902999878,17.910003662
1747398434.250337,46.171000000,0.000000000,0.000000000,0.000000000,0.000000000,-20.482261658,-108.594696045,0.000000000,-18.902999878,17.910003662
1747398434.252825,46.173000000,0.000000000,0.000000000,0.000000000,0.000000000,-20.482261658,-108.594863892,0.000000000,-18.902999878,17.910003662
1747398434.255318,46.176000000,0.000000000,0.000000000,0.000000000,0.000000000,-20.482261658,-108.595031738,0.000000000,-18.893999100,18.180027008
1747398434.257787,46.178000000,0.000000000,0.000000000,0.000000000,0.000000000,-20.482261658,-108.595214844,0.000000000,-18.893999100,18.180027008
1747398434.260333,46.181000000,0.000000000,0.000000000,0.000000000,0.000000000,-20.482261658,-108.595382690,0.000000000,-18.893999100,18.180027008
1747398434.262795,46.183000000,0.000000000,0.000000000,0.000000000,0.000000000,-20.482261658,-108.595550537,0.000000000,-18.893999100,18.180027008
1747398434.265223,46.186000000,0.000000000,0.000000000,0.000000000,0.000000000,-20.482261658,-108.595718384,0.000000000,-18.893999100,18.180027008
1747398434.267715,46.188000000,0.000000000,0.000000000,0.000000000,0.000000000,-20.482261658,-108.595886230,0.000000000,-18.893999100,18.180027008
1747398434.270122,46.190000000,0.000000000,0.000000000,0.000000000,0.000000000,-20.482261658,-108.596054077,0.000000000,-18.893999100,18.180027008
1747398434.272575,46.193000000,0.000000000,0.000000000,0.000000000,0.000000000,-20.482261658,-108.596221924,0.000000000,-18.893999100,18.180027008
1747398434.274938,46.195000000,0.000000000,0.000000000,0.000000000,0.000000000,-20.482261658,-108.596374512,0.000000000,-18.893999100,18.180027008
1747398434.277323,46.198000000,0.000000000,0.000000000,0.000000000,0.000000000,-20.482261658,-108.596542358,0.000000000,-18.893999100,18.180027008
1747398434.279708,46.200000000,0.000000000,0.000000000,0.000000000,0.000000000,-20.468761444,-107.406600952,0.000000000,-18.885000229,18.449993134
1747398434.282061,46.202000000,0.000000000,0.000000000,0.000000000,0.000000000,-20.468761444,-105.617614746,0.000000000,-18.885000229,18.449993134
1747398434.284417,46.205000000,0.000000000,0.000000000,0.000000000,0.000000000,-20.482261658,-106.782119751,0.000000000,-18.885000229,18.449993134
1747398434.286804,46.207000000,0.000000000,0.000000000,0.000000000,0.000000000,-20.468761444,-107.421371460,0.000000000,-18.885000229,18.449993134
1747398434.289175,46.210000000,0.000000000,0.000000000,0.000000000,0.000000000,-20.468761444,-105.618103027,0.000000000,-18.885000229,18.449993134
1747398434.291584,46.212000000,0.000000000,0.000000000,0.000000000,0.000000000,-20.482261658,-106.792541504,0.000000000,-18.875999451,18.720016479
1747398434.293950,46.214000000,0.000000000,0.000000000,0.000000000,0.000000000,-20.468761444,-107.403823853,0.000000000,-18.875999451,18.720016479
1747398434.296304,46.217000000,0.000000000,0.000000000,0.000000000,0.000000000,-20.468761444,-105.618576050,0.000000000,-18.875999451,18.720016479
1747398434.298683,46.219000000,0.000000000,0.000000000,0.000000000,0.000000000,-20.482261658,-106.776138306,0.000000000,-18.875999451,18.720016479
1747398434.301072,46.221000000,0.000000000,0.000000000,0.000000000,0.000000000,-20.468761444,-107.419296265,0.000000000,-18.867000580,18.989982605
1747398434.303443,46.224000000,0.000000000,0.000000000,0.000000000,0.000000000,-20.468761444,-105.619049072,0.000000000,-18.857999802,19.260005951
1747398434.305825,46.226000000,0.000000000,0.000000000,0.000000000,0.000000000,-20.482261658,-106.800308228,0.000000000,-18.867000580,18.989982605
1747398434.308281,46.229000000,0.000000000,0.000000000,0.000000000,0.000000000,-20.468761444,-107.419784546,0.000000000,-18.857999802,19.260005951
1747398434.310673,46.231000000,0.000000000,0.000000000,0.000000000,0.000000000,-20.468761444,-105.619537354,0.000000000,-18.849000931,19.529972076
1747398434.313051,46.233000000,0.000000000,0.000000000,0.000000000,0.000000000,-20.482261658,-106.819458008,0.000000000,-18.849000931,19.529972076
1747398434.315413,46.236000000,0.000000000,0.000000000,0.000000000,0.000000000,-20.468761444,-107.421768188,0.000000000,-18.849000931,19.529972076
1747398434.317841,46.238000000,0.000000000,0.000000000,0.000000000,0.000000000,-20.468761444,-105.620010376,0.000000000,-18.840000153,19.799995422
1747398434.320270,46.241000000,0.000000000,0.000000000,0.000000000,0.000000000,-20.482261658,-106.838226318,0.000000000,-18.830999374,20.070018768
1747398434.322725,46.243000000,0.000000000,0.000000000,0.000000000,0.000000000,-20.482261658,-108.599578857,0.000000000,-18.822000504,20.339984894
1747398434.325195,46.245000000,0.000000000,0.000000000,0.000000000,0.000000000,-20.468761444,-107.367324829,0.000000000,-18.822000504,20.339984894
1747398434.327622,46.248000000,0.000000000,0.000000000,0.000000000,0.000000000,-20.468761444,-105.620666504,0.000000000,-18.812999725,20.610008240
1747398434.330012,46.250000000,0.000000000,0.000000000,0.000000000,0.000000000,-20.482261658,-106.835266113,0.000000000,-18.812999725,20.610008240
1747398434.332399,46.253000000,0.000000000,0.000000000,0.000000000,0.000000000,-20.482261658,-108.600234985,0.000000000,-18.812999725,20.610008240
1747398434.334767,46.255000000,0.000000000,0.000000000,0.000000000,0.000000000,-20.468761444,-107.414779663,0.000000000,-18.804000854,20.879974365
1747398434.337138,46.257000000,0.000000000,0.000000000,0.000000000,0.000000000,-20.482261658,-106.794082642,0.000000000,-18.804000854,20.879974365
1747398434.339565,46.260000000,0.000000000,0.000000000,0.000000000,0.000000000,-20.482261658,-108.600723267,0.000000000,-18.795000076,21.149997711
1747398434.341976,46.262000000,0.000000000,0.000000000,0.000000000,0.000000000,-20.468761444,-107.417510986,0.000000000,-18.795000076,21.149997711
1747398434.344334,46.265000000,0.000000000,0.000000000,0.000000000,0.000000000,-20.482261658,-106.832595825,0.000000000,-18.795000076,21.149997711
1747398434.346658,46.267000000,0.000000000,0.000000000,0.000000000,0.000000000,-20.482261658,-108.601211548,0.000000000,-18.795000076,21.149997711
1747398434.349038,46.269000000,0.000000000,0.000000000,0.000000000,0.000000000,-20.482261658,-108.601364136,0.000000000,-18.785999298,21.420021057
1747398434.351401,46.272000000,0.000000000,0.000000000,0.000000000,0.000000000,-20.482261658,-108.601531982,0.000000000,-18.785999298,21.420021057
1747398434.353760,46.274000000,0.000000000,0.000000000,0.000000000,0.000000000,-20.482261658,-108.601684570,0.000000000,-18.785999298,21.420021057
1747398434.356134,46.276000000,0.000000000,0.000000000,0.000000000,0.000000000,-20.482261658,-108.601852417,0.000000000,-18.795000076,21.149997711
1747398434.358567,46.279000000,0.000000000,0.000000000,0.000000000,0.000000000,-20.482261658,-108.602020264,0.000000000,-18.795000076,21.149997711
1747398434.360927,46.281000000,0.000000000,0.000000000,0.000000000,0.000000000,-20.482261658,-108.602172852,0.000000000,-18.795000076,21.149997711
1747398434.363348,46.284000000,0.000000000,0.000000000,0.000000000,0.000000000,-20.482261658,-108.602340698,0.000000000,-18.795000076,21.149997711
1747398434.365743,46.286000000,0.000000000,0.000000000,0.000000000,0.000000000,-20.482261658,-108.602508545,0.000000000,-18.795000076,21.149997711
1747398434.368127,46.288000000,0.000000000,0.000000000,0.000000000,0.000000000,-20.482261658,-108.602676392,0.000000000,-18.795000076,21.149997711
1747398434.370510,46.291000000,0.000000000,0.000000000,0.000000000,0.000000000,-20.482261658,-108.602828979,0.000000000,-18.795000076,21.149997711
1747398434.372898,46.293000000,0.000000000,0.000000000,0.000000000,0.000000000,-20.482261658,-108.602996826,0.000000000,-18.804000854,20.879974365
1747398434.375279,46.296000000,0.000000000,0.000000000,0.000000000,0.000000000,-20.482261658,-108.603149414,0.000000000,-18.804000854,20.879974365
1747398434.377652,46.298000000,0.000000000,0.000000000,0.000000000,0.000000000,-20.482261658,-108.603317261,0.000000000,-18.804000854,20.879974365
1747398434.380016,46.300000000,0.000000000,0.000000000,0.000000000,0.000000000,-20.482261658,-108.603485107,0.000000000,-18.804000854,20.879974365
1747398434.382405,46.303000000,0.000000000,0.000000000,0.000000000,0.000000000,-20.482261658,-108.603637695,0.000000000,-18.812999725,20.610008240
1747398434.384806,46.305000000,0.000000000,0.000000000,0.000000000,0.000000000,-20.482261658,-108.603805542,0.000000000,-18.812999725,20.610008240
1747398434.387159,46.308000000,0.000000000,0.000000000,0.000000000,0.000000000,-20.482261658,-108.603973389,0.000000000,-18.822000504,20.339984894
1747398434.389541,46.310000000,0.000000000,0.000000000,0.000000000,0.000000000,-20.482261658,-108.604125977,0.000000000,-18.822000504,20.339984894
1747398434.391924,46.312000000,0.000000000,0.000000000,0.000000000,0.000000000,-20.482261658,-108.604293823,0.000000000,-18.830999374,20.070018768
1747398434.394391,46.315000000,0.000000000,0.000000000,0.000000000,0.000000000,-20.482261658,-108.604446411,0.000000000,-18.830999374,20.070018768
1747398434.396680,46.317000000,0.000000000,0.000000000,0.000000000,0.000000000,-20.482261658,-108.604614258,0.000000000,-18.840000153,19.799995422
1747398434.399140,46.319000000,0.000000000,0.000000000,0.000000000,0.000000000,-20.482261658,-108.604782104,0.000000000,-18.840000153,19.799995422
1747398434.401449,46.322000000,0.000000000,0.000000000,0.000000000,0.000000000,-20.482261658,-108.604934692,0.000000000,-18.849000931,19.529972076
1747398434.403808,46.324000000,0.000000000,0.000000000,0.000000000,0.000000000,-20.482261658,-108.605102539,0.000000000,-18.857999802,19.260005951
1747398434.406183,46.327000000,0.000000000,0.000000000,0.000000000,0.000000000,-20.482261658,-108.605270386,0.000000000,-18.857999802,19.260005951
1747398434.408572,46.329000000,0.000000000,0.000000000,0.000000000,0.000000000,-20.482261658,-108.605422974,0.000000000,-18.867000580,18.989982605
1747398434.410940,46.331000000,0.000000000,0.000000000,0.000000000,0.000000000,-20.482261658,-108.605590820,0.000000000,-18.867000580,18.989982605
1747398434.413318,46.334000000,0.000000000,0.000000000,0.000000000,0.000000000,-20.482261658,-108.605743408,0.000000000,-18.875999451,18.720016479
1747398434.415747,46.336000000,0.000000000,0.000000000,0.000000000,0.000000000,-20.482261658,-108.605911255,0.000000000,-18.885000229,18.449993134
1747398434.418211,46.338000000,0.000000000,0.000000000,0.000000000,0.000000000,-20.482261658,-108.606079102,0.000000000,-18.893999100,18.180027008
1747398434.420623,46.341000000,0.000000000,0.000000000,0.000000000,0.000000000,-20.482261658,-108.606246948,0.000000000,-18.893999100,18.180027008
1747398434.422962,46.343000000,0.000000000,0.000000000,0.000000000,0.000000000,-20.482261658,-108.606414795,0.000000000,-18.902999878,17.910003662
1747398434.425420,46.346000000,0.000000000,0.000000000,0.000000000,0.000000000,-20.482261658,-108.606567383,0.000000000,-18.912000656,17.639980316
1747398434.427759,46.348000000,0.000000000,0.000000000,0.000000000,0.000000000,-20.482261658,-108.606735229,0.000000000,-18.912000656,17.639980316
1747398434.430183,46.350000000,0.000000000,0.000000000,0.000000000,0.000000000,-20.482261658,-108.606903076,0.000000000,-18.920999527,17.370014191
1747398434.432516,46.353000000,0.000000000,0.000000000,0.000000000,0.000000000,-20.468761444,-107.408035278,0.000000000,-18.930000305,17.099990845
1747398434.434831,46.355000000,0.000000000,0.000000000,0.000000000,0.000000000,-20.468761444,-105.627975464,0.000000000,-18.930000305,17.099990845
1747398434.437193,46.358000000,0.000000000,0.000000000,0.000000000,0.000000000,-20.482261658,-106.761993408,0.000000000,-18.938999176,16.830024719
1747398434.439552,46.360000000,0.000000000,0.000000000,0.000000000,0.000000000,-20.482261658,-108.607528687,0.000000000,-18.947999954,16.560001373
1747398434.441946,46.362000000,0.000000000,0.000000000,0.000000000,0.000000000,-20.468761444,-107.442581177,0.000000000,-18.947999954,16.560001373
1747398434.444308,46.365000000,0.000000000,0.000000000,0.000000000,0.000000000,-20.468761444,-105.628601074,0.000000000,-18.957000732,16.289978027
1747398434.446702,46.367000000,0.000000000,0.000000000,0.000000000,0.000000000,-20.482261658,-106.803802490,0.000000000,-18.957000732,16.289978027
1747398434.449063,46.369000000,0.000000000,0.000000000,0.000000000,0.000000000,-20.482261658,-108.608169556,0.000000000,-18.965999603,16.020011902
1747398434.451437,46.372000000,0.000000000,0.000000000,0.000000000,0.000000000,-20.468761444,-107.440917969,0.000000000,-18.965999603,16.020011902
1747398434.453809,46.374000000,0.000000000,0.000000000,0.000000000,0.000000000,-20.468761444,-105.629241943,0.000000000,-18.965999603,16.020011902
1747398434.456183,46.377000000,0.000000000,0.000000000,0.000000000,0.000000000,-20.482261658,-106.799880981,0.000000000,-18.975000381,15.749988556
1747398434.458580,46.379000000,0.000000000,0.000000000,0.000000000,0.000000000,-20.482261658,-108.608810425,0.000000000,-18.975000381,15.749988556
1747398434.460948,46.381000000,0.000000000,0.000000000,0.000000000,0.000000000,-20.468761444,-107.421844482,0.000000000,-18.983999252,15.480022430
1747398434.463380,46.384000000,0.000000000,0.000000000,0.000000000,0.000000000,-20.468761444,-105.629882813,0.000000000,-18.983999252,15.480022430
1747398434.465767,46.386000000,0.000000000,0.000000000,0.000000000,0.000000000,-20.482261658,-106.848098755,0.000000000,-18.983999252,15.480022430
1747398434.468163,46.388000000,0.000000000,0.000000000,0.000000000,0.000000000,-20.482261658,-108.609451294,0.000000000,-18.983999252,15.480022430
1747398434.470528,46.391000000,0.000000000,0.000000000,0.000000000,0.000000000,-20.468761444,-107.422485352,0.000000000,-18.983999252,15.480022430
1747398434.472965,46.393000000,0.000000000,0.000000000,0.000000000,0.000000000,-20.468761444,-105.630523682,0.000000000,-18.983999252,15.480022430
1747398434.475344,46.396000000,0.000000000,0.000000000,0.000000000,0.000000000,-20.482261658,-106.852355957,0.000000000,-18.983999252,15.480022430
1747398434.477702,46.398000000,0.000000000,0.000000000,0.000000000,0.000000000,-20.482261658,-108.610092163,0.000000000,-18.993000031,15.209999084
1747398434.480100,46.400000000,0.000000000,0.000000000,0.000000000,0.000000000,-20.468761444,-107.445144653,0.000000000,-18.993000031,15.209999084
1747398434.482492,46.403000000,0.000000000,0.000000000,0.000000000,0.000000000,-20.468761444,-105.631164551,0.000000000,-18.993000031,15.209999084
1747398434.484937,46.405000000,0.000000000,0.000000000,0.000000000,0.000000000,-20.482261658,-106.819946289,0.000000000,-18.993000031,15.209999084
1747398434.487304,46.408000000,0.000000000,0.000000000,0.000000000,0.000000000,-20.482261658,-108.610733032,0.000000000,-18.993000031,15.209999084
1747398434.489726,46.410000000,0.000000000,0.000000000,0.000000000,0.000000000,-20.482261658,-108.610900879,0.000000000,-18.993000031,15.209999084
1747398434.492073,46.412000000,0.000000000,0.000000000,0.000000000,0.000000000,-20.482261658,-108.611068726,0.000000000,-18.993000031,15.209999084
1747398434.494441,46.415000000,0.000000000,0.000000000,0.000000000,0.000000000,-20.482261658,-108.611221313,0.000000000,-18.993000031,15.209999084
1747398434.496781,46.417000000,0.000000000,0.000000000,0.000000000,0.000000000,-20.482261658,-108.611389160,0.000000000,-18.993000031,15.209999084
1747398434.499187,46.419000000,0.000000000,0.000000000,0.000000000,0.000000000,-20.482261658,-108.611557007,0.000000000,-18.993000031,15.209999084
1747398434.501568,46.422000000,0.000000000,0.000000000,0.000000000,0.000000000,-20.482261658,-108.611709595,0.000000000,-18.993000031,15.209999084
1747398434.503941,46.424000000,0.000000000,0.000000000,0.000000000,0.000000000,-20.482261658,-108.611877441,0.000000000,-18.993000031,15.209999084
1747398434.506321,46.427000000,0.000000000,0.000000000,0.000000000,0.000000000,-20.482261658,-108.612030029,0.000000000,-18.993000031,15.209999084
1747398434.508788,46.429000000,0.000000000,0.000000000,0.000000000,0.000000000,-20.482261658,-108.612197876,0.000000000,-18.993000031,15.209999084
1747398434.511241,46.432000000,0.000000000,0.000000000,0.000000000,0.000000000,-20.482261658,-108.612365723,0.000000000,-18.993000031,15.209999084
1747398434.513677,46.434000000,0.000000000,0.000000000,0.000000000,0.000000000,-20.482261658,-108.612533569,0.000000000,-18.993000031,15.209999084
1747398434.516082,46.436000000,0.000000000,0.000000000,0.000000000,0.000000000,-20.482261658,-108.612701416,0.000000000,-18.993000031,15.209999084
1747398434.518518,46.439000000,0.000000000,0.000000000,0.000000000,0.000000000,-20.482261658,-108.612854004,0.000000000,-18.993000031,15.209999084
1747398434.520932,46.441000000,0.000000000,0.000000000,0.000000000,0.000000000,-20.482261658,-108.613021851,0.000000000,-18.993000031,15.209999084
1747398434.523339,46.444000000,0.000000000,0.000000000,0.000000000,0.000000000,-20.482261658,-108.613189697,0.000000000,-18.993000031,15.209999084
1747398434.525719,46.446000000,0.000000000,0.000000000,0.000000000,0.000000000,-20.482261658,-108.613357544,0.000000000,-18.993000031,15.209999084
1747398434.528162,46.448000000,0.000000000,0.000000000,0.000000000,0.000000000,-20.482261658,-108.613510132,0.000000000,-18.993000031,15.209999084
1747398434.530624,46.451000000,0.000000000,0.000000000,0.000000000,0.000000000,-20.482261658,-108.613677979,0.000000000,-18.993000031,15.209999084
1747398434.533122,46.453000000,0.000000000,0.000000000,0.000000000,0.000000000,-20.482261658,-108.613845825,0.000000000,-18.993000031,15.209999084
1747398434.535518,46.456000000,0.000000000,0.000000000,0.000000000,0.000000000,-20.482261658,-108.614013672,0.000000000,-18.993000031,15.209999084
1747398434.537929,46.458000000,0.000000000,0.000000000,0.000000000,0.000000000,-20.482261658,-108.614181519,0.000000000,-18.993000031,15.209999084
1747398434.540389,46.461000000,0.000000000,0.000000000,0.000000000,0.000000000,-20.482261658,-108.614349365,0.000000000,-19.002000809,14.939975739
1747398434.542787,46.463000000,0.000000000,0.000000000,0.000000000,0.000000000,-20.482261658,-108.614517212,0.000000000,-19.002000809,14.939975739
1747398434.545180,46.465000000,0.000000000,0.000000000,0.000000000,0.000000000,-20.482261658,-108.614685059,0.000000000,-19.002000809,14.939975739
1747398434.547578,46.468000000,0.000000000,0.000000000,0.000000000,0.000000000,-20.482261658,-108.614837646,0.000000000,-19.002000809,14.939975739
1747398434.549957,46.470000000,0.000000000,0.000000000,0.000000000,0.000000000,-20.468761444,-107.420425415,0.000000000,-19.002000809,14.939975739
1747398434.552343,46.473000000,0.000000000,0.000000000,0.000000000,0.000000000,-20.468761444,-105.635925293,0.000000000,-19.002000809,14.939975739
1747398434.554751,46.475000000,0.000000000,0.000000000,0.000000000,0.000000000,-20.482261658,-106.823196411,0.000000000,-19.002000809,14.939975739
1747398434.557158,46.477000000,0.000000000,0.000000000,0.000000000,0.000000000,-20.482261658,-108.615493774,0.000000000,-19.010999680,14.670009613
1747398434.559545,46.480000000,0.000000000,0.000000000,0.000000000,0.000000000,-20.482261658,-108.615646362,0.000000000,-19.010999680,14.670009613
1747398434.561938,46.482000000,0.000000000,0.000000000,0.000000000,0.000000000,-20.482261658,-108.615814209,0.000000000,-19.010999680,14.670009613
1747398434.564346,46.485000000,0.000000000,0.000000000,0.000000000,0.000000000,-20.468761444,-107.428100586,0.000000000,-19.010999680,14.670009613
1747398434.566805,46.487000000,0.000000000,0.000000000,0.000000000,0.000000000,-20.468761444,-105.636886597,0.000000000,-19.010999680,14.670009613
