__time,/psm_joint_telemetry/header/stamp,/psm_joint_telemetry/insertion/effort,/psm_joint_telemetry/insertion/position,/psm_joint_telemetry/insertion/velocity,/psm_joint_telemetry/pitch/effort,/psm_joint_telemetry/pitch/position,/psm_joint_telemetry/pitch/velocity,/psm_joint_telemetry/roll/effort,/psm_joint_telemetry/roll/position,/psm_joint_telemetry/roll/velocity
1748602355.087497,28.736000000,0.000000000,333.357879639,0.000000000,0.000000000,-3.053326607,-77.878837585,0.000000000,-0.066000223,-16.545295715
1748602355.089895,28.739000000,0.000000000,333.357879639,0.000000000,0.000000000,-3.053326607,-77.878837585,0.000000000,-0.066000223,-16.542976379
1748602355.092299,28.741000000,0.000000000,333.357879639,0.000000000,0.000000000,-3.053326607,-77.878837585,0.000000000,-0.066000223,-16.540887833
1748602355.094651,28.743000000,0.000000000,333.357879639,0.000000000,0.000000000,-3.053326607,-77.878837585,0.000000000,-0.066000223,-16.539007187
1748602355.096992,28.746000000,0.000000000,333.357879639,0.000000000,0.000000000,-3.053326607,-77.878837585,0.000000000,-0.066000223,-16.537317276
1748602355.099414,28.748000000,0.000000000,333.357879639,0.000000000,0.000000000,-3.053326607,-77.878837585,0.000000000,-0.066000223,-16.535793304
1748602355.101722,28.750000000,0.000000000,333.357879639,0.000000000,0.000000000,-3.053326607,-77.878837585,0.000000000,-0.066000223,-16.534423828
1748602355.104114,28.753000000,0.000000000,333.357879639,0.000000000,0.000000000,-3.053326607,-77.878837585,0.000000000,-0.066000223,-16.533191681
1748602355.106482,28.755000000,0.000000000,333.357879639,0.000000000,0.000000000,-3.053326607,-77.878837585,0.000000000,-0.066000223,-16.532081604
1748602355.108915,28.758000000,0.000000000,333.357879639,0.000000000,0.000000000,-3.039827108,-79.687759399,0.000000000,-0.066000223,-16.530876160
1748602355.111291,28.760000000,0.000000000,333.357879639,0.000000000,0.000000000,-3.039827108,-77.468193054,0.000000000,-0.066000223,-16.529977798
1748602355.113669,28.762000000,0.000000000,333.357879639,0.000000000,0.000000000,-3.039827108,-77.468193054,0.000000000,-0.066000223,-16.529169083
1748602355.116052,28.765000000,0.000000000,333.357879639,0.000000000,0.000000000,-3.039827108,-77.468193054,0.000000000,-0.066000223,-16.528440475
1748602355.118414,28.767000000,0.000000000,333.357879639,0.000000000,0.000000000,-3.039827108,-77.468193054,0.000000000,-0.066000223,-16.527786255
1748602355.120872,28.769000000,0.000000000,333.357879639,0.000000000,0.000000000,-3.039827108,-77.468193054,0.000000000,-0.066000223,-16.527196884
1748602355.123503,28.772000000,0.000000000,333.357879639,0.000000000,0.000000000,-3.039827108,-77.468193054,0.000000000,-0.066000223,-16.526664734
1748602355.125812,28.774000000,0.000000000,333.357879639,0.000000000,0.000000000,-3.039827108,-77.468193054,0.000000000,-0.066000223,-16.526187897
1748602355.128260,28.777000000,0.000000000,333.357879639,0.000000000,0.000000000,-3.039827108,-77.468193054,0.000000000,-0.066000223,-16.525756836
1748602355.130637,28.779000000,0.000000000,333.357879639,0.000000000,0.000000000,-3.039827108,-77.468193054,0.000000000,-0.066000223,-16.525371552
1748602355.133094,28.782000000,0.000000000,333.357879639,0.000000000,0.000000000,-3.039827108,-77.468193054,0.000000000,-0.066000223,-16.525022507
1748602355.135405,28.784000000,0.000000000,333.357879639,0.000000000,0.000000000,-3.039827108,-77.468193054,0.000000000,-0.066000223,-16.524709702
1748602355.137750,28.786000000,0.000000000,333.357879639,0.000000000,0.000000000,-3.039827108,-77.468193054,0.000000000,-0.066000223,-16.524427414
1748602355.140068,28.789000000,0.000000000,333.357879639,0.000000000,0.000000000,-3.039827108,-77.468193054,0.000000000,-0.066000223,-16.524173737
1748602355.142407,28.791000000,0.000000000,333.357879639,0.000000000,0.000000000,-3.039827108,-77.468193054,0.000000000,-0.066000223,-16.523944855
1748602355.144765,28.793000000,0.000000000,333.357879639,0.000000000,0.000000000,-3.039827108,-77.468193054,0.000000000,-0.066000223,-16.523738861
1748602355.147115,28.796000000,0.000000000,333.357879639,0.000000000,0.000000000,-3.039827108,-77.468193054,0.000000000,-0.066000223,-16.523553848
1748602355.149549,28.798000000,0.000000000,333.357879639,0.000000000,0.000000000,-3.039827108,-77.468193054,0.000000000,-0.066000223,-16.523387909
1748602355.151881,28.801000000,0.000000000,333.357879639,0.000000000,0.000000000,-3.053326607,-75.714920044,0.000000000,-0.066000223,-16.523441315
1748602355.154243,28.803000000,0.000000000,333.357879639,0.000000000,0.000000000,-3.053326607,-77.878837585,0.000000000,-0.066000223,-16.523307800
1748602355.156636,28.805000000,0.000000000,333.357879639,0.000000000,0.000000000,-3.053326607,-77.878837585,0.000000000,-0.066000223,-16.523185730
1748602355.159002,28.808000000,0.000000000,333.357879639,0.000000000,0.000000000,-3.066826105,-76.082008362,0.000000000,-0.066000223,-16.523281097
1748602355.161372,28.810000000,0.000000000,333.357879639,0.000000000,0.000000000,-3.066826105,-78.289474487,0.000000000,-0.066000223,-16.523181915
1748602355.163705,28.812000000,0.000000000,333.357879639,0.000000000,0.000000000,-3.066826105,-78.289474487,0.000000000,-0.066000223,-16.523094177
1748602355.166089,28.815000000,0.000000000,333.357879639,0.000000000,0.000000000,-3.066826105,-78.289474487,0.000000000,-0.066000223,-16.523014069
1748602355.168447,28.817000000,0.000000000,333.357879639,0.000000000,0.000000000,-3.066826105,-78.289474487,0.000000000,-0.066000223,-16.522941589
1748602355.170837,28.820000000,0.000000000,333.357879639,0.000000000,0.000000000,-3.066826105,-78.289474487,0.000000000,-0.066000223,-16.522878647
1748602355.173237,28.822000000,0.000000000,333.357879639,0.000000000,0.000000000,-3.066826105,-78.289474487,0.000000000,-0.066000223,-16.522819519
1748602355.175610,28.824000000,0.000000000,333.357879639,0.000000000,0.000000000,-3.066826105,-78.289474487,0.000000000,-0.066000223,-16.522768021
1748602355.177984,28.827000000,0.000000000,333.357879639,0.000000000,0.000000000,-3.066826105,-78.289474487,0.000000000,-0.066000223,-16.522720337
1748602355.180380,28.829000000,0.000000000,333.357879639,0.000000000,0.000000000,-3.066826105,-78.289474487,0.000000000,-0.066000223,-16.522678375
1748602355.182811,28.831000000,0.000000000,333.357879639,0.000000000,0.000000000,-3.066826105,-78.289474487,0.000000000,-0.066000223,-16.522640228
1748602355.185171,28.834000000,0.000000000,333.357879639,0.000000000,0.000000000,-3.066826105,-78.289474487,0.000000000,-0.066000223,-16.522605896
1748602355.187554,28.836000000,0.000000000,333.357879639,0.000000000,0.000000000,-3.066826105,-78.289474487,0.000000000,-0.066000223,-16.522575378
1748602355.189968,28.839000000,0.000000000,333.357879639,0.000000000,0.000000000,-3.066826105,-78.289474487,0.000000000,-0.066000223,-16.522546768
1748602355.192372,28.841000000,0.000000000,333.357879639,0.000000000,0.000000000,-3.066826105,-78.289474487,0.000000000,-0.066000223,-16.522521973
1748602355.194882,28.843000000,0.000000000,333.357879639,0.000000000,0.000000000,-3.066826105,-78.289474487,0.000000000,-0.066000223,-16.522499084
1748602355.197248,28.846000000,0.000000000,333.357879639,0.000000000,0.000000000,-3.066826105,-78.289474487,0.000000000,-0.066000223,-16.522480011
1748602355.199665,28.848000000,0.000000000,333.357879639,0.000000000,0.000000000,-3.066826105,-78.289474487,0.000000000,-0.066000223,-16.522460938
1748602355.202062,28.851000000,0.000000000,333.357879639,0.000000000,0.000000000,-3.066826105,-78.289474487,0.000000000,-0.066000223,-16.522443771
1748602355.204443,28.853000000,0.000000000,333.357879639,0.000000000,0.000000000,-3.066826105,-78.289474487,0.000000000,-0.066000223,-16.522430420
1748602355.206894,28.855000000,0.000000000,333.357879639,0.000000000,0.000000000,-3.066826105,-78.289474487,0.000000000,-0.066000223,-16.522417068
1748602355.209283,28.858000000,0.000000000,333.357879639,0.000000000,0.000000000,-3.066826105,-78.289474487,0.000000000,-0.066000223,-16.522403717
1748602355.211705,28.860000000,0.000000000,333.357879639,0.000000000,0.000000000,-3.066826105,-78.289474487,0.000000000,-0.066000223,-16.522394180
1748602355.214006,28.863000000,0.000000000,333.357879639,0.000000000,0.000000000,-3.066826105,-78.289474487,0.000000000,-0.066000223,-16.522384644
1748602355.216363,28.865000000,0.000000000,333.357879639,0.000000000,0.000000000,-3.066826105,-78.289474487,0.000000000,-0.066000223,-16.522375107
1748602355.218707,28.867000000,0.000000000,333.357879639,0.000000000,0.000000000,-3.066826105,-78.289474487,0.000000000,-0.066000223,-16.522367477
1748602355.221073,28.870000000,0.000000000,333.357879639,0.000000000,0.000000000,-3.066826105,-78.289474487,0.000000000,-0.066000223,-16.522359848
1748602355.223432,28.872000000,0.000000000,333.357879639,0.000000000,0.000000000,-3.066826105,-78.289474487,0.000000000,-0.066000223,-16.522354126
1748602355.225834,28.875000000,0.000000000,333.357879639,0.000000000,0.000000000,-3.066826105,-78.289474487,0.000000000,-0.066000223,-16.522348404
1748602355.228227,28.877000000,0.000000000,333.357879639,0.000000000,0.000000000,-3.066826105,-78.289474487,0.000000000,-0.066000223,-16.522342682
1748602355.230665,28.879000000,0.000000000,333.357879639,0.000000000,0.000000000,-3.066826105,-78.289474487,0.000000000,-0.066000223,-16.522338867
1748602355.233056,28.882000000,0.000000000,333.357879639,0.000000000,0.000000000,-3.066826105,-78.289474487,0.000000000,-0.066000223,-16.522335052
1748602355.235459,28.884000000,0.000000000,333.357879639,0.000000000,0.000000000,-3.066826105,-78.289474487,0.000000000,-0.066000223,-16.522331238
1748602355.237822,28.887000000,0.000000000,333.357879639,0.000000000,0.000000000,-3.066826105,-78.289474487,0.000000000,-0.066000223,-16.522327423
1748602355.240185,28.889000000,0.000000000,333.357879639,0.000000000,0.000000000,-3.066826105,-78.289474487,0.000000000,-0.066000223,-16.522323608
1748602355.242594,28.891000000,0.000000000,333.357879639,0.000000000,0.000000000,-3.066826105,-78.289474487,0.000000000,-0.066000223,-16.522321701
1748602355.244968,28.894000000,0.000000000,333.357879639,0.000000000,0.000000000,-3.066826105,-78.289474487,0.000000000,-0.066000223,-16.522319794
1748602355.247382,28.896000000,0.000000000,333.357879639,0.000000000,0.000000000,-3.080325603,-76.485214233,0.000000000,-0.066000223,-16.522520065
1748602355.249849,28.898000000,0.000000000,333.357879639,0.000000000,0.000000000,-3.093827963,-76.935737610,0.000000000,-0.066000223,-16.522720337
1748602355.252326,28.901000000,0.000000000,333.357879639,0.000000000,0.000000000,-3.107327461,-77.349533081,0.000000000,-0.066000223,-16.522924423
1748602355.254730,28.903000000,0.000000000,333.357879639,0.000000000,0.000000000,-3.107327461,-79.521484375,0.000000000,-0.066000223,-16.522924423
1748602355.257178,28.906000000,0.000000000,333.357879639,0.000000000,0.000000000,-3.107327461,-79.521484375,0.000000000,-0.066000223,-16.522922516
1748602355.259721,28.908000000,0.000000000,333.357879639,0.000000000,0.000000000,-3.107327461,-79.521484375,0.000000000,-0.066000223,-16.522920609
1748602355.262120,28.911000000,0.000000000,333.357879639,0.000000000,0.000000000,-3.107327461,-79.521484375,0.000000000,-0.066000223,-16.522920609
1748602355.264530,28.913000000,0.000000000,333.357879639,0.000000000,0.000000000,-3.107327461,-79.521484375,0.000000000,-0.066000223,-16.522918701
1748602355.266986,28.916000000,0.000000000,333.357879639,0.000000000,0.000000000,-3.107327461,-79.521484375,0.000000000,-0.066000223,-16.522918701
1748602355.269525,28.918000000,0.000000000,333.357879639,0.000000000,0.000000000,-3.107327461,-79.521484375,0.000000000,-0.066000223,-16.522916794
1748602355.271930,28.921000000,0.000000000,333.357879639,0.000000000,0.000000000,-3.107327461,-79.521484375,0.000000000,-0.066000223,-16.522916794
1748602355.274375,28.923000000,0.000000000,333.357879639,0.000000000,0.000000000,-3.107327461,-79.521484375,0.000000000,-0.066000223,-16.522914886
1748602355.276839,28.925000000,0.000000000,333.357879639,0.000000000,0.000000000,-3.120827198,-77.772613525,0.000000000,-0.066000223,-16.523117065
1748602355.279225,28.928000000,0.000000000,333.357879639,0.000000000,0.000000000,-3.120827198,-79.932128906,0.000000000,-0.066000223,-16.523117065
1748602355.281651,28.930000000,0.000000000,333.357879639,0.000000000,0.000000000,-3.107327461,-81.730842590,0.000000000,-0.066000223,-16.522912979
1748602355.284117,28.933000000,0.000000000,333.357879639,0.000000000,0.000000000,-3.107327461,-79.521484375,0.000000000,-0.066000223,-16.522912979
1748602355.286500,28.935000000,0.000000000,333.357879639,0.000000000,0.000000000,-3.120827198,-77.781433105,0.000000000,-0.066000223,-16.523115158
1748602355.288877,28.938000000,0.000000000,333.357879639,0.000000000,0.000000000,-3.120827198,-79.932128906,0.000000000,-0.066000223,-16.523115158
1748602355.291255,28.940000000,0.000000000,333.357879639,0.000000000,0.000000000,-3.120827198,-79.932128906,0.000000000,-0.066000223,-16.523115158
1748602355.293680,28.942000000,0.000000000,333.357879639,0.000000000,0.000000000,-3.120827198,-79.932128906,0.000000000,-0.066000223,-16.523113251
1748602355.296121,28.945000000,0.000000000,333.357879639,0.000000000,0.000000000,-3.120827198,-79.932128906,0.000000000,-0.066000223,-16.523113251
1748602355.298506,28.947000000,0.000000000,333.357879639,0.000000000,0.000000000,-3.120827198,-79.932128906,0.000000000,-0.066000223,-16.523113251
1748602355.300931,28.950000000,0.000000000,333.357879639,0.000000000,0.000000000,-3.120827198,-79.932128906,0.000000000,-0.066000223,-16.523113251
1748602355.303318,28.952000000,0.000000000,333.357879639,0.000000000,0.000000000,-3.120827198,-79.932128906,0.000000000,-0.066000223,-16.523113251
1748602355.305730,28.954000000,0.000000000,333.357879639,0.000000000,0.000000000,-3.120827198,-79.932128906,0.000000000,-0.066000223,-16.523113251
1748602355.308098,28.957000000,0.000000000,333.357879639,0.000000000,0.000000000,-3.120827198,-79.932128906,0.000000000,-0.066000223,-16.523113251
1748602355.310494,28.959000000,0.000000000,333.357879639,0.000000000,0.000000000,-3.120827198,-79.932128906,0.000000000,-0.066000223,-16.523113251
1748602355.312849,28.962000000,0.000000000,333.357879639,0.000000000,0.000000000,-3.120827198,-79.932128906,0.000000000,-0.066000223,-16.523113251
1748602355.315157,28.964000000,0.000000000,333.357879639,0.000000000,0.000000000,-3.120827198,-79.932128906,0.000000000,-0.066000223,-16.523113251
1748602355.317522,28.966000000,0.000000000,333.357879639,0.000000000,0.000000000,-3.120827198,-79.932128906,0.000000000,-0.066000223,-16.523111343
1748602355.319906,28.969000000,0.000000000,333.357879639,0.000000000,0.000000000,-3.120827198,-79.932128906,0.000000000,-0.066000223,-16.523111343
1748602355.322258,28.971000000,0.000000000,333.357879639,0.000000000,0.000000000,-3.120827198,-79.932128906,0.000000000,-0.066000223,-16.523111343
1748602355.324670,28.973000000,0.000000000,333.357879639,0.000000000,0.000000000,-3.120827198,-79.932128906,0.000000000,-0.066000223,-16.523111343
1748602355.327062,28.976000000,0.000000000,333.357879639,0.000000000,0.000000000,-3.120827198,-79.932128906,0.000000000,-0.066000223,-16.523111343
1748602355.329427,28.978000000,0.000000000,333.357879639,0.000000000,0.000000000,-3.120827198,-79.932128906,0.000000000,-0.066000223,-16.523111343
1748602355.331845,28.980000000,0.000000000,333.357879639,0.000000000,0.000000000,-3.120827198,-79.932128906,0.000000000,-0.066000223,-16.523111343
1748602355.334243,28.983000000,0.000000000,333.357879639,0.000000000,0.000000000,-3.120827198,-79.932128906,0.000000000,-0.066000223,-16.523111343
1748602355.336617,28.985000000,0.000000000,333.357879639,0.000000000,0.000000000,-3.120827198,-79.932128906,0.000000000,-0.066000223,-16.523111343
1748602355.338984,28.988000000,0.000000000,333.357879639,0.000000000,0.000000000,-3.120827198,-79.932128906,0.000000000,-0.066000223,-16.523111343
1748602355.341359,28.990000000,0.000000000,333.357879639,0.000000000,0.000000000,-3.120827198,-79.932128906,0.000000000,-0.066000223,-16.523111343
1748602355.343740,28.992000000,0.000000000,333.357879639,0.000000000,0.000000000,-3.120827198,-79.932128906,0.000000000,-0.066000223,-16.523111343
1748602355.346163,28.995000000,0.000000000,333.357879639,0.000000000,0.000000000,-3.120827198,-79.932128906,0.000000000,-0.066000223,-16.523111343
1748602355.348623,28.997000000,0.000000000,333.357879639,0.000000000,0.000000000,-3.120827198,-79.932128906,0.000000000,-0.066000223,-16.523111343
1748602355.351034,29.000000000,0.000000000,333.357879639,0.000000000,0.000000000,-3.120827198,-79.932128906,0.000000000,-0.066000223,-16.523111343
1748602355.353417,29.002000000,0.000000000,333.357879639,0.000000000,0.000000000,-3.120827198,-79.932128906,0.000000000,-0.066000223,-16.523111343
1748602355.355816,29.004000000,0.000000000,333.357879639,0.000000000,0.000000000,-3.120827198,-79.932128906,0.000000000,-0.066000223,-16.523111343
1748602355.358191,29.007000000,0.000000000,333.357879639,0.000000000,0.000000000,-3.120827198,-79.932128906,0.000000000,-0.066000223,-16.523111343
1748602355.360543,29.009000000,0.000000000,333.357879639,0.000000000,0.000000000,-3.134329319,-78.120979309,0.000000000,-0.066000223,-16.523315430
1748602355.362874,29.012000000,0.000000000,333.357879639,0.000000000,0.000000000,-3.134329319,-80.342849731,0.000000000,-0.066000223,-16.523315430
1748602355.365220,29.014000000,0.000000000,333.357879639,0.000000000,0.000000000,-3.120827198,-82.192138672,0.000000000,-0.066000223,-16.523111343
1748602355.367547,29.016000000,0.000000000,333.357879639,0.000000000,0.000000000,-3.120827198,-79.932128906,0.000000000,-0.066000223,-16.523111343
1748602355.369979,29.019000000,0.000000000,333.357879639,0.000000000,0.000000000,-3.120827198,-79.932128906,0.000000000,-0.066000223,-16.523111343
1748602355.372347,29.021000000,0.000000000,333.357879639,0.000000000,0.000000000,-3.120827198,-79.932128906,0.000000000,-0.066000223,-16.523111343
1748602355.374735,29.023000000,0.000000000,333.357879639,0.000000000,0.000000000,-3.120827198,-79.932128906,0.000000000,-0.066000223,-16.523111343
1748602355.377110,29.026000000,0.000000000,333.357879639,0.000000000,0.000000000,-3.120827198,-79.932128906,0.000000000,-0.066000223,-16.523111343
1748602355.379470,29.028000000,0.000000000,333.357879639,0.000000000,0.000000000,-3.134329319,-78.127525330,0.000000000,-0.066000223,-16.523315430
1748602355.381864,29.031000000,0.000000000,333.357879639,0.000000000,0.000000000,-3.120827198,-82.163414001,0.000000000,-0.066000223,-16.523111343
1748602355.384227,29.033000000,0.000000000,333.357879639,0.000000000,0.000000000,-3.120827198,-79.932128906,0.000000000,-0.066000223,-16.523111343
1748602355.386617,29.035000000,0.000000000,333.357879639,0.000000000,0.000000000,-3.120827198,-79.932128906,0.000000000,-0.066000223,-16.523111343
1748602355.389013,29.038000000,0.000000000,333.357879639,0.000000000,0.000000000,-3.134329319,-78.149665833,0.000000000,-0.066000223,-16.523315430
1748602355.391497,29.040000000,0.000000000,333.357879639,0.000000000,0.000000000,-3.120827198,-82.152122498,0.000000000,-0.066000223,-16.523111343
1748602355.393958,29.043000000,0.000000000,333.357879639,0.000000000,0.000000000,-3.120827198,-79.932128906,0.000000000,-0.066000223,-16.523111343
1748602355.396440,29.045000000,0.000000000,333.357879639,0.000000000,0.000000000,-3.120827198,-79.932128906,0.000000000,-0.066000223,-16.523111343
1748602355.399052,29.048000000,0.000000000,333.357879639,0.000000000,0.000000000,-3.134329319,-78.210075378,0.000000000,-0.066000223,-16.523315430
1748602355.401709,29.050000000,0.000000000,333.357879639,0.000000000,0.000000000,-3.120827198,-81.926757813,0.000000000,-0.066000223,-16.523111343
1748602355.404198,29.053000000,0.000000000,333.357879639,0.000000000,0.000000000,-3.120827198,-79.932128906,0.000000000,-0.066000223,-16.523111343
1748602355.406653,29.055000000,0.000000000,333.357879639,0.000000000,0.000000000,-3.134329319,-78.305778503,0.000000000,-0.066000223,-16.523315430
1748602355.409103,29.058000000,0.000000000,333.357879639,0.000000000,0.000000000,-3.120827198,-82.070968628,0.000000000,-0.066000223,-16.523111343
1748602355.411527,29.060000000,0.000000000,333.357879639,0.000000000,0.000000000,-3.120827198,-79.932128906,0.000000000,-0.066000223,-16.523111343
1748602355.413964,29.063000000,0.000000000,333.357879639,0.000000000,0.000000000,-3.134329319,-78.182952881,0.000000000,-0.066000223,-16.523315430
1748602355.416381,29.065000000,0.000000000,333.357879639,0.000000000,0.000000000,-3.120827198,-82.109893799,0.000000000,-0.066000223,-16.523111343
1748602355.418780,29.067000000,0.000000000,333.357879639,0.000000000,0.000000000,-3.134329319,-78.172271729,0.000000000,-0.066000223,-16.523315430
1748602355.421288,29.070000000,0.000000000,333.357879639,0.000000000,0.000000000,-3.120827198,-82.123481750,0.000000000,-0.066000223,-16.523111343
1748602355.423767,29.072000000,0.000000000,333.357879639,0.000000000,0.000000000,-3.134329319,-78.231452942,0.000000000,-0.066000223,-16.523315430
1748602355.426277,29.075000000,0.000000000,333.357879639,0.000000000,0.000000000,-3.120827198,-82.057159424,0.000000000,-0.066000223,-16.523111343
1748602355.428710,29.077000000,0.000000000,333.357879639,0.000000000,0.000000000,-3.120827198,-79.932128906,0.000000000,-0.066000223,-16.523111343
1748602355.431244,29.080000000,0.000000000,333.357879639,0.000000000,0.000000000,-3.120827198,-79.932128906,0.000000000,-0.066000223,-16.523111343
1748602355.433762,29.082000000,0.000000000,333.357879639,0.000000000,0.000000000,-3.120827198,-79.932128906,0.000000000,-0.066000223,-16.523111343
1748602355.436172,29.085000000,0.000000000,333.357879639,0.000000000,0.000000000,-3.120827198,-79.932128906,0.000000000,-0.066000223,-16.523111343
1748602355.438709,29.087000000,0.000000000,333.357879639,0.000000000,0.000000000,-3.134329319,-78.184722900,0.000000000,-0.066000223,-16.523315430
1748602355.441183,29.090000000,0.000000000,333.357879639,0.000000000,0.000000000,-3.120827198,-82.046920776,0.000000000,-0.066000223,-16.523111343
1748602355.443626,29.092000000,0.000000000,333.357879639,0.000000000,0.000000000,-3.120827198,-79.932128906,0.000000000,-0.066000223,-16.523111343
1748602355.445928,29.095000000,0.000000000,333.357879639,0.000000000,0.000000000,-3.120827198,-79.932128906,0.000000000,-0.066000223,-16.523111343
1748602355.448324,29.097000000,0.000000000,333.357879639,0.000000000,0.000000000,-3.134329319,-78.100166321,0.000000000,-0.066000223,-16.523315430
1748602355.450765,29.099000000,0.000000000,333.357879639,0.000000000,0.000000000,-3.120827198,-82.134483337,0.000000000,-0.066000223,-16.523111343
1748602355.453277,29.102000000,0.000000000,333.357879639,0.000000000,0.000000000,-3.120827198,-79.932128906,0.000000000,-0.066000223,-16.523111343
1748602355.455703,29.104000000,0.000000000,333.357879639,0.000000000,0.000000000,-3.120827198,-79.932128906,0.000000000,-0.066000223,-16.523111343
1748602355.458196,29.107000000,0.000000000,333.357879639,0.000000000,0.000000000,-3.120827198,-79.932128906,0.000000000,-0.066000223,-16.523111343
1748602355.460664,29.109000000,0.000000000,333.357879639,0.000000000,0.000000000,-3.134329319,-78.214385986,0.000000000,-0.066000223,-16.523315430
1748602355.463135,29.112000000,0.000000000,333.357879639,0.000000000,0.000000000,-3.120827198,-82.044372559,0.000000000,-0.066000223,-16.523111343
1748602355.465570,29.114000000,0.000000000,333.357879639,0.000000000,0.000000000,-3.120827198,-79.932128906,0.000000000,-0.066000223,-16.523111343
1748602355.468061,29.117000000,0.000000000,333.357879639,0.000000000,0.000000000,-3.134329319,-78.190017700,0.000000000,-0.066000223,-16.523315430
1748602355.470514,29.119000000,0.000000000,333.357879639,0.000000000,0.000000000,-3.134329319,-80.342849731,0.000000000,-0.066000223,-16.523315430
1748602355.472890,29.122000000,0.000000000,333.357879639,0.000000000,0.000000000,-3.120827198,-82.070968628,0.000000000,-0.066000223,-16.523111343
1748602355.475260,29.124000000,0.000000000,333.357879639,0.000000000,0.000000000,-3.120827198,-79.932128906,0.000000000,-0.066000223,-16.523111343
1748602355.477633,29.126000000,0.000000000,333.357879639,0.000000000,0.000000000,-3.134329319,-78.115341187,0.000000000,-0.066000223,-16.523315430
1748602355.480048,29.129000000,0.000000000,333.357879639,0.000000000,0.000000000,-3.134329319,-80.342849731,0.000000000,-0.066000223,-16.523315430
1748602355.482470,29.131000000,0.000000000,333.357879639,0.000000000,0.000000000,-3.120827198,-82.125312805,0.000000000,-0.066000223,-16.523111343
1748602355.484953,29.134000000,0.000000000,333.357879639,0.000000000,0.000000000,-3.120827198,-79.932128906,0.000000000,-0.066000223,-16.523111343
1748602355.487349,29.136000000,0.000000000,333.357879639,0.000000000,0.000000000,-3.134329319,-78.183837891,0.000000000,-0.066000223,-16.523315430
1748602355.489804,29.138000000,0.000000000,333.357879639,0.000000000,0.000000000,-3.120827198,-82.094688416,0.000000000,-0.066000223,-16.523111343
1748602355.492209,29.141000000,0.000000000,333.357879639,0.000000000,0.000000000,-3.134329319,-78.190895081,0.000000000,-0.066000223,-16.523315430
1748602355.494630,29.143000000,0.000000000,333.357879639,0.000000000,0.000000000,-3.120827198,-82.119842529,0.000000000,-0.066000223,-16.523111343
1748602355.497043,29.146000000,0.000000000,333.357879639,0.000000000,0.000000000,-3.134329319,-78.175842285,0.000000000,-0.066000223,-16.523315430
1748602355.499406,29.148000000,0.000000000,333.357879639,0.000000000,0.000000000,-3.120827198,-82.121658325,0.000000000,-0.066000223,-16.523111343
1748602355.501755,29.150000000,0.000000000,333.357879639,0.000000000,0.000000000,-3.134329319,-78.126594543,0.000000000,-0.066000223,-16.523315430
1748602355.504140,29.153000000,0.000000000,333.357879639,0.000000000,0.000000000,-3.120827198,-82.170051575,0.000000000,-0.066000223,-16.523111343
1748602355.506521,29.155000000,0.000000000,333.357879639,0.000000000,0.000000000,-3.120827198,-79.932128906,0.000000000,-0.066000223,-16.523111343
1748602355.508920,29.158000000,0.000000000,333.357879639,0.000000000,0.000000000,-3.134329319,-78.137725830,0.000000000,-0.066000223,-16.523315430
1748602355.511376,29.160000000,0.000000000,333.357879639,0.000000000,0.000000000,-3.120827198,-82.132644653,0.000000000,-0.066000223,-16.523111343
1748602355.513767,29.162000000,0.000000000,333.357879639,0.000000000,0.000000000,-3.120827198,-79.932128906,0.000000000,-0.066000223,-16.523111343
1748602355.516229,29.165000000,0.000000000,333.357879639,0.000000000,0.000000000,-3.120827198,-79.932128906,0.000000000,-0.066000223,-16.523111343
1748602355.518681,29.167000000,0.000000000,333.357879639,0.000000000,0.000000000,-3.120827198,-79.932128906,0.000000000,-0.066000223,-16.523111343
1748602355.521120,29.170000000,0.000000000,333.357879639,0.000000000,0.000000000,-3.120827198,-79.932128906,0.000000000,-0.066000223,-16.523111343
1748602355.523568,29.172000000,0.000000000,333.357879639,0.000000000,0.000000000,-3.120827198,-79.932128906,0.000000000,-0.066000223,-16.523111343
1748602355.525998,29.175000000,0.000000000,333.357879639,0.000000000,0.000000000,-3.134329319,-78.192657471,0.000000000,-0.066000223,-16.523315430
1748602355.528412,29.177000000,0.000000000,333.357879639,0.000000000,0.000000000,-3.120827198,-82.133560181,0.000000000,-0.066000223,-16.523111343
1748602355.530797,29.179000000,0.000000000,333.357879639,0.000000000,0.000000000,-3.134329319,-78.158767700,0.000000000,-0.066000223,-16.523315430
1748602355.533227,29.182000000,0.000000000,333.357879639,0.000000000,0.000000000,-3.120827198,-82.135406494,0.000000000,-0.066000223,-16.523111343
1748602355.535758,29.184000000,0.000000000,333.357879639,0.000000000,0.000000000,-3.120827198,-79.932128906,0.000000000,-0.066000223,-16.523111343
1748602355.538108,29.187000000,0.000000000,333.357879639,0.000000000,0.000000000,-3.120827198,-79.932128906,0.000000000,-0.066000223,-16.523111343
1748602355.540499,29.189000000,0.000000000,333.357879639,0.000000000,0.000000000,-3.134329319,-78.165985107,0.000000000,-0.066000223,-16.523315430
1748602355.542901,29.192000000,0.000000000,333.357879639,0.000000000,0.000000000,-3.120827198,-82.136329651,0.000000000,-0.066000223,-16.523111343
1748602355.545261,29.194000000,0.000000000,333.357879639,0.000000000,0.000000000,-3.134329319,-78.134033203,0.000000000,-0.066000223,-16.523315430
1748602355.547636,29.196000000,0.000000000,333.357879639,0.000000000,0.000000000,-3.120827198,-82.146522522,0.000000000,-0.066000223,-16.523111343
1748602355.550023,29.199000000,0.000000000,333.357879639,0.000000000,0.000000000,-3.134329319,-78.137725830,0.000000000,-0.066000223,-16.523315430
1748602355.552402,29.201000000,0.000000000,333.357879639,0.000000000,0.000000000,-3.134329319,-80.342849731,0.000000000,-0.066000223,-16.523315430
1748602355.554806,29.203000000,0.000000000,333.357879639,0.000000000,0.000000000,-3.120827198,-82.150253296,0.000000000,-0.066000223,-16.523111343
1748602355.557170,29.206000000,0.000000000,333.357879639,0.000000000,0.000000000,-3.120827198,-109.932128906,0.000000000,-0.066000223,-16.523111343
1748602355.559571,29.208000000,0.000000000,333.357879639,0.000000000,0.000000000,-3.093827963,-113.553749084,0.000000000,-0.066000223,-16.522703171
1748602355.561993,29.211000000,0.000000000,333.357879639,0.000000000,0.000000000,-3.039827108,-116.294822693,0.000000000,-0.066000223,-16.521888733
1748602355.564395,29.213000000,0.000000000,333.357879639,0.000000000,0.000000000,-3.026324749,-109.235275269,0.000000000,-0.066000223,-16.521684647
1748602355.566823,29.215000000,0.000000000,333.357879639,0.000000000,0.000000000,-3.012825251,-108.827774048,0.000000000,-0.066000223,-16.521480560
1748602355.569200,29.218000000,0.000000000,333.357879639,0.000000000,0.000000000,-2.999325752,-108.417137146,0.000000000,-0.066000223,-16.521278381
1748602355.571657,29.220000000,0.000000000,333.357879639,0.000000000,0.000000000,-2.985823393,-108.021423340,0.000000000,-0.066000223,-16.521074295
1748602355.574121,29.223000000,0.000000000,333.357879639,0.000000000,0.000000000,-2.972323895,-107.561973572,0.000000000,-0.066000223,-16.520870209
1748602355.576565,29.225000000,0.000000000,333.357879639,0.000000000,0.000000000,-2.972323895,-105.414825439,0.000000000,-0.066000223,-16.520870209
1748602355.579038,29.228000000,0.000000000,333.357879639,0.000000000,0.000000000,-2.958824396,-107.130516052,0.000000000,-0.066000223,-16.520666122
1748602355.581490,29.230000000,0.000000000,333.357879639,0.000000000,0.000000000,-2.945324898,-106.747718811,0.000000000,-0.066000223,-16.520462036
1748602355.583996,29.233000000,0.000000000,333.357879639,0.000000000,0.000000000,-2.918323040,-108.114746094,0.000000000,-0.066000223,-16.520055771
1748602355.586306,29.235000000,0.000000000,333.357879639,0.000000000,0.000000000,-2.904823303,-105.465805054,0.000000000,-0.066000223,-16.519851685
1748602355.588716,29.237000000,0.000000000,333.357879639,0.000000000,0.000000000,-2.891321182,-105.171737671,0.000000000,-0.066000223,-16.519647598
1748602355.591095,29.240000000,0.000000000,333.357879639,0.000000000,0.000000000,-2.877821684,-104.716606140,0.000000000,-0.066000223,-16.519443512
1748602355.593479,29.242000000,0.000000000,333.357879639,0.000000000,0.000000000,-2.864322186,-104.339775085,0.000000000,-0.066000223,-16.519239426
1748602355.595883,29.245000000,0.000000000,333.357879639,0.000000000,0.000000000,-2.823820591,-107.539909363,0.000000000,-0.066000223,-16.518629074
1748602355.598244,29.247000000,0.000000000,333.357879639,0.000000000,0.000000000,-2.796818972,-104.422271729,0.000000000,-0.066000223,-16.518220901
1748602355.600616,29.249000000,0.000000000,333.357879639,0.000000000,0.000000000,-2.810321093,-98.248008728,0.000000000,-0.066000223,-16.518424988
1748602355.603025,29.252000000,0.000000000,333.357879639,0.000000000,0.000000000,-2.796818972,-102.297088623,0.000000000,-0.066000223,-16.518220901
1748602355.605413,29.254000000,0.000000000,333.357879639,0.000000000,0.000000000,-2.783319473,-101.842849731,0.000000000,-0.066000223,-16.518016815
1748602355.607803,29.256000000,0.000000000,333.357879639,0.000000000,0.000000000,-2.769819736,-101.449485779,0.000000000,-0.066000223,-16.517812729
1748602355.610185,29.259000000,0.000000000,333.357879639,0.000000000,0.000000000,-2.769819736,-69.254867554,0.000000000,-0.066000223,-16.517812729
1748602355.612545,29.261000000,0.000000000,333.357879639,0.000000000,0.000000000,-2.810321093,-63.861236572,0.000000000,-0.066000223,-16.518424988
1748602355.614970,29.264000000,0.000000000,333.357879639,0.000000000,0.000000000,-2.891321182,-59.525375366,0.000000000,-0.066000223,-16.519647598
1748602355.617374,29.266000000,0.000000000,333.357879639,0.000000000,0.000000000,-2.904823303,-71.186462402,0.000000000,-0.066000223,-16.519851685
1748602355.619750,29.268000000,0.000000000,333.357879639,0.000000000,0.000000000,-2.877821684,-76.927932739,0.000000000,-0.066000223,-16.519443512
1748602355.622122,29.271000000,0.000000000,333.357879639,0.000000000,0.000000000,-2.877821684,-72.540168762,0.000000000,-0.066000223,-16.519443512
1748602355.624510,29.273000000,0.000000000,333.357879639,0.000000000,0.000000000,-2.891321182,-70.734977722,0.000000000,-0.066000223,-16.519647598
1748602355.626961,29.276000000,0.000000000,333.357879639,0.000000000,0.000000000,-2.918323040,-69.338188171,0.000000000,-0.066000223,-16.520055771
1748602355.629446,29.278000000,0.000000000,333.357879639,0.000000000,0.000000000,-2.918323040,-73.772178650,0.000000000,-0.066000223,-16.520055771
1748602355.631856,29.281000000,0.000000000,333.357879639,0.000000000,0.000000000,-2.904823303,-75.488754272,0.000000000,-0.066000223,-16.519851685
1748602355.634307,29.283000000,0.000000000,333.357879639,0.000000000,0.000000000,-2.904823303,-73.361526489,0.000000000,-0.066000223,-16.519851685
1748602355.636746,29.285000000,0.000000000,333.357879639,0.000000000,0.000000000,-2.904823303,-73.361526489,0.000000000,-0.066000223,-16.519851685
1748602355.639132,29.288000000,0.000000000,333.357879639,0.000000000,0.000000000,-2.931822538,-69.877952576,0.000000000,-0.066000223,-16.520257950
1748602355.641515,29.290000000,0.000000000,333.357879639,0.000000000,0.000000000,-2.958824396,-70.620033264,0.000000000,-0.066000223,-16.520666122
1748602355.643929,29.293000000,0.000000000,333.357879639,0.000000000,0.000000000,-2.958824396,-75.004180908,0.000000000,-0.066000223,-16.520666122
1748602355.646338,29.295000000,0.000000000,333.357879639,0.000000000,0.000000000,-2.945324898,-76.801933289,0.000000000,-0.066000223,-16.520462036
1748602355.648777,29.297000000,0.000000000,333.357879639,0.000000000,0.000000000,-2.945324898,-74.593544006,0.000000000,-0.066000223,-16.520462036
1748602355.651190,29.300000000,0.000000000,333.357879639,0.000000000,0.000000000,-2.945324898,-74.593544006,0.000000000,-0.066000223,-16.520462036
1748602355.653576,29.302000000,0.000000000,333.357879639,0.000000000,0.000000000,-2.945324898,-74.593544006,0.000000000,-0.066000223,-16.520462036
1748602355.655951,29.305000000,0.000000000,333.357879639,0.000000000,0.000000000,-2.945324898,-74.593544006,0.000000000,-0.066000223,-16.520462036
1748602355.658338,29.307000000,0.000000000,333.357879639,0.000000000,0.000000000,-2.931822538,-76.386131287,0.000000000,-0.066000223,-16.520257950
1748602355.660782,29.309000000,0.000000000,333.357879639,0.000000000,0.000000000,-2.918323040,-105.977790833,0.000000000,-0.066000223,-16.520055771
1748602355.663162,29.312000000,0.000000000,333.357879639,0.000000000,0.000000000,-2.837320328,-114.427368164,0.000000000,-0.066000223,-16.518831253
1748602355.665565,29.314000000,0.000000000,333.357879639,0.000000000,0.000000000,-2.715818882,-117.530487061,0.000000000,-0.066000223,-16.516998291
1748602355.667939,29.317000000,0.000000000,333.357879639,0.000000000,0.000000000,-2.675317526,-102.937103271,0.000000000,-0.066000223,-16.516386032
1748602355.670326,29.319000000,0.000000000,333.357879639,0.000000000,0.000000000,-2.702316761,-92.799453735,0.000000000,-0.066000223,-16.516794205
1748602355.672711,29.321000000,0.000000000,333.357879639,0.000000000,0.000000000,-2.729318380,-93.627777100,0.000000000,-0.066000223,-16.517200470
1748602355.675121,29.324000000,0.000000000,333.357879639,0.000000000,0.000000000,-2.729318380,-98.022865295,0.000000000,-0.066000223,-16.517200470
1748602355.677516,29.326000000,0.000000000,333.357879639,0.000000000,0.000000000,-2.702316761,-101.576499939,0.000000000,-0.066000223,-16.516794205
1748602355.679967,29.329000000,0.000000000,333.357879639,0.000000000,0.000000000,-2.648315668,-104.352340698,0.000000000,-0.066000223,-16.515977859
1748602355.682462,29.331000000,0.000000000,333.357879639,0.000000000,0.000000000,-2.634816170,-97.323745728,0.000000000,-0.066000223,-16.515775681
1748602355.685119,29.334000000,0.000000000,333.357879639,0.000000000,0.000000000,-2.634816170,-95.148208618,0.000000000,-0.066000223,-16.515775681
1748602355.687403,29.336000000,0.000000000,333.357879639,0.000000000,0.000000000,-2.607814312,-98.454917908,0.000000000,-0.066000223,-16.515367508
1748602355.689754,29.338000000,0.000000000,333.357879639,0.000000000,0.000000000,-2.567312956,-99.587036133,0.000000000,-0.066000223,-16.514755249
1748602355.692101,29.341000000,0.000000000,333.357879639,0.000000000,0.000000000,-2.553813457,-94.918830872,0.000000000,-0.066000223,-16.514553070
1748602355.694436,29.343000000,0.000000000,333.357879639,0.000000000,0.000000000,-2.553813457,-92.684196472,0.000000000,-0.066000223,-16.514553070
1748602355.696795,29.345000000,0.000000000,333.357879639,0.000000000,0.000000000,-2.526814461,-96.364669800,0.000000000,-0.066000223,-16.514144897
1748602355.699161,29.348000000,0.000000000,333.357879639,0.000000000,0.000000000,-2.513312101,-93.689193726,0.000000000,-0.066000223,-16.513940811
1748602355.701528,29.350000000,0.000000000,333.357879639,0.000000000,0.000000000,-2.486312866,-95.083198547,0.000000000,-0.066000223,-16.513532639
1748602355.703914,29.353000000,0.000000000,333.357879639,0.000000000,0.000000000,-2.472810745,-92.442993164,0.000000000,-0.066000223,-16.513328552
1748602355.706303,29.355000000,0.000000000,333.357879639,0.000000000,0.000000000,-2.472810745,-90.220184326,0.000000000,-0.066000223,-16.513328552
1748602355.708704,29.357000000,0.000000000,333.357879639,0.000000000,0.000000000,-2.472810745,-90.220184326,0.000000000,-0.066000223,-16.513328552
1748602355.711103,29.360000000,0.000000000,333.357879639,0.000000000,0.000000000,-2.472810745,-90.220184326,0.000000000,-0.066000223,-16.513328552
1748602355.713478,29.362000000,0.000000000,333.357879639,0.000000000,0.000000000,-2.472810745,-90.220184326,0.000000000,-0.066000223,-16.513328552
1748602355.715895,29.365000000,0.000000000,333.357879639,0.000000000,0.000000000,-2.472810745,-90.220184326,0.000000000,-0.066000223,-16.513328552
1748602355.718289,29.367000000,0.000000000,333.357879639,0.000000000,0.000000000,-2.472810745,-90.220184326,0.000000000,-0.066000223,-16.513328552
1748602355.720699,29.369000000,0.000000000,333.357879639,0.000000000,0.000000000,-2.472810745,-90.220184326,0.000000000,-0.066000223,-16.513328552
1748602355.723156,29.372000000,0.000000000,333.357879639,0.000000000,0.000000000,-2.459311247,-91.979698181,0.000000000,-0.066000223,-16.513126373
1748602355.725569,29.374000000,0.000000000,333.357879639,0.000000000,0.000000000,-2.459311247,-89.809539795,0.000000000,-0.066000223,-16.513126373
1748602355.728071,29.377000000,0.000000000,333.357879639,0.000000000,0.000000000,-2.459311247,-89.809539795,0.000000000,-0.066000223,-16.513126373
1748602355.730520,29.379000000,0.000000000,333.357879639,0.000000000,0.000000000,-2.459311247,-89.809539795,0.000000000,-0.066000223,-16.513126373
1748602355.732925,29.382000000,0.000000000,333.357879639,0.000000000,0.000000000,-2.459311247,-89.809539795,0.000000000,-0.066000223,-16.513126373
1748602355.735277,29.384000000,0.000000000,333.357879639,0.000000000,0.000000000,-2.445811749,-91.593482971,0.000000000,-0.066000223,-16.512922287
1748602355.737662,29.386000000,0.000000000,333.357879639,0.000000000,0.000000000,-2.432312012,-91.210670471,0.000000000,-0.066000223,-16.512718201
1748602355.740042,29.389000000,0.000000000,333.357879639,0.000000000,0.000000000,-2.391810656,-94.362495422,0.000000000,-0.066000223,-16.512105942
1748602355.742438,29.391000000,0.000000000,333.357879639,0.000000000,0.000000000,-2.391810656,-87.756248474,0.000000000,-0.066000223,-16.512105942
1748602355.744890,29.394000000,0.000000000,333.357879639,0.000000000,0.000000000,-2.391810656,-87.756248474,0.000000000,-0.066000223,-16.512105942
1748602355.747216,29.396000000,0.000000000,333.357879639,0.000000000,0.000000000,-2.391810656,-87.756248474,0.000000000,-0.066000223,-16.512105942
1748602355.749631,29.398000000,0.000000000,333.357879639,0.000000000,0.000000000,-2.391810656,-87.756248474,0.000000000,-0.066000223,-16.512105942
1748602355.752036,29.401000000,0.000000000,333.357879639,0.000000000,0.000000000,-2.378308535,-89.540534973,0.000000000,-0.066000223,-16.511903763
1748602355.754414,29.403000000,0.000000000,333.357879639,0.000000000,0.000000000,-2.364809036,-89.119453430,0.000000000,-0.066000223,-16.511697769
1748602355.756801,29.405000000,0.000000000,333.357879639,0.000000000,0.000000000,-2.351309299,-88.734519958,0.000000000,-0.066000223,-16.511495590
1748602355.759173,29.408000000,0.000000000,333.357879639,0.000000000,0.000000000,-2.324307442,-90.123832703,0.000000000,-0.066000223,-16.511087418
1748602355.761565,29.410000000,0.000000000,333.357879639,0.000000000,0.000000000,-2.297308445,-89.285446167,0.000000000,-0.066000223,-16.510681152
1748602355.763961,29.413000000,0.000000000,333.357879639,0.000000000,0.000000000,-2.283806324,-86.680625916,0.000000000,-0.066000223,-16.510475159
1748602355.766396,29.415000000,0.000000000,333.357879639,0.000000000,0.000000000,-2.270306587,-86.239402771,0.000000000,-0.066000223,-16.510272980
1748602355.768772,29.417000000,0.000000000,333.357879639,0.000000000,0.000000000,-2.256807089,-85.828727722,0.000000000,-0.066000223,-16.510068893
1748602355.771183,29.420000000,0.000000000,333.357879639,0.000000000,0.000000000,-2.243304729,-85.457023621,0.000000000,-0.066000223,-16.509864807
1748602355.773589,29.422000000,0.000000000,333.357879639,0.000000000,0.000000000,-2.243304729,-83.238861084,0.000000000,-0.066000223,-16.509864807
1748602355.776010,29.425000000,0.000000000,333.357879639,0.000000000,0.000000000,-2.229805231,-85.016418457,0.000000000,-0.066000223,-16.509660721
1748602355.778435,29.427000000,0.000000000,333.357879639,0.000000000,0.000000000,-2.216305733,-84.596717834,0.000000000,-0.066000223,-16.509456635
1748602355.780766,29.429000000,0.000000000,333.357879639,0.000000000,0.000000000,-2.202806234,-84.183380127,0.000000000,-0.066000223,-16.509252548
1748602355.783120,29.432000000,0.000000000,333.357879639,0.000000000,0.000000000,-2.189303875,-83.817184448,0.000000000,-0.066000223,-16.509050369
1748602355.785483,29.434000000,0.000000000,333.357879639,0.000000000,0.000000000,-2.189303875,-81.596214294,0.000000000,-0.066000223,-16.509050369
1748602355.787879,29.437000000,0.000000000,333.357879639,0.000000000,0.000000000,-2.175804377,-83.405143738,0.000000000,-0.066000223,-16.508846283
1748602355.790262,29.439000000,0.000000000,333.357879639,0.000000000,0.000000000,-2.175804377,-81.185577393,0.000000000,-0.066000223,-16.508846283
1748602355.792702,29.441000000,0.000000000,333.357879639,0.000000000,0.000000000,-2.162304878,-82.980545044,0.000000000,-0.066000223,-16.508642197
1748602355.795062,29.444000000,0.000000000,333.357879639,0.000000000,0.000000000,-2.162304878,-80.774932861,0.000000000,-0.066000223,-16.508642197
1748602355.797430,29.446000000,0.000000000,333.357879639,0.000000000,0.000000000,-2.162304878,-80.774932861,0.000000000,-0.066000223,-16.508642197
1748602355.799893,29.449000000,0.000000000,333.357879639,0.000000000,0.000000000,-2.148802519,-82.583305359,0.000000000,-0.066000223,-16.508438110
1748602355.802316,29.451000000,0.000000000,333.357879639,0.000000000,0.000000000,-2.148802519,-80.364204407,0.000000000,-0.066000223,-16.508438110
1748602355.804708,29.453000000,0.000000000,333.357879639,0.000000000,0.000000000,-2.148802519,-80.364204407,0.000000000,-0.066000223,-16.508438110
1748602355.807091,29.456000000,0.000000000,333.357879639,0.000000000,0.000000000,-2.135303020,-82.149063110,0.000000000,-0.066000223,-16.508234024
1748602355.809476,29.458000000,0.000000000,333.357879639,0.000000000,0.000000000,-2.135303020,-79.953567505,0.000000000,-0.066000223,-16.508234024
1748602355.811900,29.461000000,0.000000000,333.357879639,0.000000000,0.000000000,-2.135303020,-79.953567505,0.000000000,-0.066000223,-16.508234024
1748602355.814277,29.463000000,0.000000000,333.357879639,0.000000000,0.000000000,-2.121803522,-81.728401184,0.000000000,-0.066000223,-16.508029938
1748602355.816813,29.465000000,0.000000000,333.357879639,0.000000000,0.000000000,-2.094801664,-83.120361328,0.000000000,-0.066000223,-16.507623672
1748602355.819247,29.468000000,0.000000000,333.357879639,0.000000000,0.000000000,-2.081302166,-80.381233215,0.000000000,-0.066000223,-16.507419586
1748602355.821680,29.470000000,0.000000000,333.357879639,0.000000000,0.000000000,-2.081302166,-78.310920715,0.000000000,-0.066000223,-16.507419586
1748602355.824097,29.473000000,0.000000000,333.357879639,0.000000000,0.000000000,-2.094801664,-76.565620422,0.000000000,-0.066000223,-16.507623672
1748602355.826587,29.475000000,0.000000000,333.357879639,0.000000000,0.000000000,-2.081302166,-80.490966797,0.000000000,-0.066000223,-16.507419586
1748602355.829059,29.478000000,0.000000000,333.357879639,0.000000000,0.000000000,-2.081302166,-78.310920715,0.000000000,-0.066000223,-16.507419586
1748602355.831537,29.480000000,0.000000000,333.357879639,0.000000000,0.000000000,-2.081302166,-48.310920715,0.000000000,-0.066000223,-16.507419586
1748602355.833981,29.483000000,0.000000000,333.357879639,0.000000000,0.000000000,-2.121803522,-43.140201569,0.000000000,-0.066000223,-16.508029938
1748602355.836445,29.485000000,0.000000000,333.357879639,0.000000000,0.000000000,-2.175804377,-42.571945190,0.000000000,-0.066000223,-16.508846283
1748602355.838914,29.488000000,0.000000000,333.357879639,0.000000000,0.000000000,-2.189303875,-49.486068726,0.000000000,-0.066000223,-16.509050369
1748602355.841453,29.490000000,0.000000000,333.357879639,0.000000000,0.000000000,-2.175804377,-53.305915833,0.000000000,-0.066000223,-16.508846283
1748602355.843903,29.493000000,0.000000000,333.357879639,0.000000000,0.000000000,-2.162304878,-52.875808716,0.000000000,-0.066000223,-16.508642197
1748602355.846271,29.495000000,0.000000000,333.357879639,0.000000000,0.000000000,-2.175804377,-49.059242249,0.000000000,-0.066000223,-16.508846283
1748602355.848661,29.497000000,0.000000000,333.357879639,0.000000000,0.000000000,-2.175804377,-51.185577393,0.000000000,-0.066000223,-16.508846283
1748602355.851044,29.500000000,0.000000000,333.357879639,0.000000000,0.000000000,-2.189303875,-49.400718689,0.000000000,-0.066000223,-16.509050369
1748602355.853422,29.502000000,0.000000000,333.357879639,0.000000000,0.000000000,-2.189303875,-51.596214294,0.000000000,-0.066000223,-16.509050369
1748602355.855797,29.504000000,0.000000000,333.357879639,0.000000000,0.000000000,-2.189303875,-51.596214294,0.000000000,-0.066000223,-16.509050369
1748602355.858175,29.507000000,0.000000000,333.357879639,0.000000000,0.000000000,-2.189303875,-51.596214294,0.000000000,-0.066000223,-16.509050369
1748602355.860574,29.509000000,0.000000000,333.357879639,0.000000000,0.000000000,-2.202806234,-49.794372559,0.000000000,-0.066000223,-16.509252548
1748602355.862989,29.512000000,0.000000000,333.357879639,0.000000000,0.000000000,-2.229805231,-48.426212311,0.000000000,-0.066000223,-16.509660721
1748602355.865394,29.514000000,0.000000000,333.357879639,0.000000000,0.000000000,-2.243304729,-51.038772583,0.000000000,-0.066000223,-16.509864807
1748602355.867825,29.516000000,0.000000000,333.357879639,0.000000000,0.000000000,-2.243304729,-53.238861084,0.000000000,-0.066000223,-16.509864807
1748602355.870233,29.519000000,0.000000000,333.357879639,0.000000000,0.000000000,-2.243304729,-53.238861084,0.000000000,-0.066000223,-16.509864807
1748602355.872692,29.521000000,0.000000000,333.357879639,0.000000000,0.000000000,-2.256807089,-51.461837769,0.000000000,-0.066000223,-16.510068893
1748602355.875107,29.524000000,0.000000000,333.357879639,0.000000000,0.000000000,-2.270306587,-51.911323547,0.000000000,-0.066000223,-16.510272980
1748602355.877509,29.526000000,0.000000000,333.357879639,0.000000000,0.000000000,-2.270306587,-54.060226440,0.000000000,-0.066000223,-16.510272980
1748602355.879858,29.529000000,0.000000000,333.357879639,0.000000000,0.000000000,-2.270306587,-54.060226440,0.000000000,-0.066000223,-16.510272980
1748602355.882263,29.531000000,0.000000000,333.357879639,0.000000000,0.000000000,-2.270306587,-54.060226440,0.000000000,-0.066000223,-16.510272980
1748602355.884598,29.533000000,0.000000000,333.357879639,0.000000000,0.000000000,-2.270306587,-54.060226440,0.000000000,-0.066000223,-16.510272980
1748602355.886966,29.536000000,0.000000000,333.357879639,0.000000000,0.000000000,-2.270306587,-54.060226440,0.000000000,-0.066000223,-16.510272980
1748602355.889331,29.538000000,0.000000000,333.357879639,0.000000000,0.000000000,-2.270306587,-54.060226440,0.000000000,-0.066000223,-16.510272980
1748602355.891702,29.540000000,0.000000000,333.357879639,0.000000000,0.000000000,-2.270306587,-54.060226440,0.000000000,-0.066000223,-16.510272980
1748602355.894078,29.543000000,0.000000000,333.357879639,0.000000000,0.000000000,-2.270306587,-54.060226440,0.000000000,-0.066000223,-16.510272980
1748602355.896461,29.545000000,0.000000000,333.357879639,0.000000000,0.000000000,-2.270306587,-54.060226440,0.000000000,-0.066000223,-16.510272980
1748602355.898848,29.548000000,0.000000000,333.357879639,0.000000000,0.000000000,-2.270306587,-54.060226440,0.000000000,-0.066000223,-16.510272980
1748602355.901263,29.550000000,0.000000000,333.357879639,0.000000000,0.000000000,-2.270306587,-54.060226440,0.000000000,-0.066000223,-16.510272980
1748602355.903625,29.552000000,0.000000000,333.357879639,0.000000000,0.000000000,-2.270306587,-54.060226440,0.000000000,-0.066000223,-16.510272980
1748602355.905991,29.555000000,0.000000000,333.357879639,0.000000000,0.000000000,-2.270306587,-54.060226440,0.000000000,-0.066000223,-16.510272980
1748602355.908428,29.557000000,0.000000000,333.357879639,0.000000000,0.000000000,-2.270306587,-54.060226440,0.000000000,-0.066000223,-16.510272980
1748602355.910933,29.560000000,0.000000000,333.357879639,0.000000000,0.000000000,-2.270306587,-54.060226440,0.000000000,-0.066000223,-16.510272980
1748602355.913353,29.562000000,0.000000000,333.357879639,0.000000000,0.000000000,-2.270306587,-54.060226440,0.000000000,-0.066000223,-16.510272980
1748602355.915795,29.564000000,0.000000000,333.357879639,0.000000000,0.000000000,-2.270306587,-54.060226440,0.000000000,-0.066000223,-16.510272980
1748602355.918144,29.567000000,0.000000000,333.357879639,0.000000000,0.000000000,-2.270306587,-54.060226440,0.000000000,-0.066000223,-16.510272980
1748602355.920496,29.569000000,0.000000000,333.357879639,0.000000000,0.000000000,-2.270306587,-54.060226440,0.000000000,-0.066000223,-16.510272980
1748602355.922868,29.572000000,0.000000000,333.357879639,0.000000000,0.000000000,-2.297308445,-50.434494019,0.000000000,-0.066000223,-16.510681152
1748602355.925246,29.574000000,0.000000000,333.357879639,0.000000000,0.000000000,-2.310807943,-53.067047119,0.000000000,-0.066000223,-16.510883331
1748602355.927639,29.576000000,0.000000000,333.357879639,0.000000000,0.000000000,-2.337807178,-51.674362183,0.000000000,-0.066000223,-16.511291504
1748602355.930078,29.579000000,0.000000000,333.357879639,0.000000000,0.000000000,-2.351309299,-54.349174500,0.000000000,-0.066000223,-16.511495590
1748602355.932469,29.581000000,0.000000000,333.357879639,0.000000000,0.000000000,-2.378308535,-52.985404968,0.000000000,-0.066000223,-16.511903763
1748602355.934877,29.584000000,0.000000000,333.357879639,0.000000000,0.000000000,-2.405310154,-53.762603760,0.000000000,-0.066000223,-16.512311935
1748602355.937246,29.586000000,0.000000000,333.357879639,0.000000000,0.000000000,-2.432312012,-54.607757568,0.000000000,-0.066000223,-16.512718201
1748602355.939625,29.588000000,0.000000000,333.357879639,0.000000000,0.000000000,-2.445811749,-57.183967590,0.000000000,-0.066000223,-16.512922287
1748602355.942017,29.591000000,0.000000000,333.357879639,0.000000000,0.000000000,-2.459311247,-57.597434998,0.000000000,-0.066000223,-16.513126373
1748602355.944412,29.593000000,0.000000000,333.357879639,0.000000000,0.000000000,-2.499812603,-54.415908813,0.000000000,-0.066000223,-16.513736725
1748602355.946835,29.596000000,0.000000000,333.357879639,0.000000000,0.000000000,-2.540313959,-55.700294495,0.000000000,-0.066000223,-16.514348984
1748602355.949284,29.598000000,0.000000000,333.357879639,0.000000000,0.000000000,-2.567312956,-58.736549377,0.000000000,-0.066000223,-16.514755249
1748602355.951666,29.600000000,0.000000000,333.357879639,0.000000000,0.000000000,-2.567312956,-63.094833374,0.000000000,-0.066000223,-16.514755249
1748602355.954046,29.603000000,0.000000000,333.357879639,0.000000000,0.000000000,-2.594314814,-59.517402649,0.000000000,-0.066000223,-16.515163422
1748602355.956435,29.605000000,0.000000000,333.357879639,0.000000000,0.000000000,-2.634816170,-58.474983215,0.000000000,-0.066000223,-16.515775681
1748602355.958868,29.608000000,0.000000000,333.357879639,0.000000000,0.000000000,-2.675317526,-59.768447876,0.000000000,-0.066000223,-16.516386032
1748602355.961246,29.610000000,0.000000000,333.357879639,0.000000000,0.000000000,-2.702316761,-62.841377258,0.000000000,-0.066000223,-16.516794205
1748602355.963649,29.612000000,0.000000000,333.357879639,0.000000000,0.000000000,-2.715818882,-65.415382385,0.000000000,-0.066000223,-16.516998291
1748602355.966051,29.615000000,0.000000000,333.357879639,0.000000000,0.000000000,-2.742817879,-64.057106018,0.000000000,-0.066000223,-16.517406464
1748602355.968460,29.617000000,0.000000000,333.357879639,0.000000000,0.000000000,-2.769819736,-64.874366760,0.000000000,-0.066000223,-16.517812729
1748602355.970840,29.620000000,0.000000000,333.357879639,0.000000000,0.000000000,-2.783319473,-67.476364136,0.000000000,-0.066000223,-16.518016815
1748602355.973227,29.622000000,0.000000000,333.357879639,0.000000000,0.000000000,-2.796818972,-67.868690491,0.000000000,-0.066000223,-16.518220901
1748602355.975627,29.624000000,0.000000000,333.357879639,0.000000000,0.000000000,-2.810321093,-68.278060913,0.000000000,-0.066000223,-16.518424988
1748602355.978044,29.627000000,0.000000000,333.357879639,0.000000000,0.000000000,-2.837320328,-66.942611694,0.000000000,-0.066000223,-16.518831253
1748602355.980455,29.629000000,0.000000000,333.357879639,0.000000000,0.000000000,-2.837320328,-71.308158875,0.000000000,-0.066000223,-16.518831253
1748602355.982887,29.632000000,0.000000000,333.357879639,0.000000000,0.000000000,-2.837320328,-71.308158875,0.000000000,-0.066000223,-16.518831253
1748602355.985270,29.634000000,0.000000000,333.357879639,0.000000000,0.000000000,-2.837320328,-71.308158875,0.000000000,-0.066000223,-16.518831253
1748602355.987687,29.636000000,0.000000000,333.357879639,0.000000000,0.000000000,-2.837320328,-71.308158875,0.000000000,-0.066000223,-16.518831253
1748602355.990063,29.639000000,0.000000000,333.357879639,0.000000000,0.000000000,-2.850822449,-69.543815613,0.000000000,-0.066000223,-16.519035339
1748602355.992443,29.641000000,0.000000000,333.357879639,0.000000000,0.000000000,-2.877821684,-68.121490479,0.000000000,-0.066000223,-16.519443512
1748602355.994841,29.644000000,0.000000000,333.357879639,0.000000000,0.000000000,-2.904823303,-68.931304932,0.000000000,-0.056998730,-14.761689186
1748602355.997322,29.646000000,0.000000000,333.357879639,0.000000000,0.000000000,-2.904823303,-73.361526489,0.000000000,-0.056998730,-14.712181091
1748602355.999758,29.648000000,0.000000000,333.357879639,0.000000000,0.000000000,-2.918323040,-71.608222961,0.000000000,-0.056998730,-14.667867661
1748602356.002164,29.651000000,0.000000000,333.357879639,0.000000000,0.000000000,-2.918323040,-73.772178650,0.000000000,-0.056998730,-14.627758980
1748602356.004619,29.653000000,0.000000000,333.357879639,0.000000000,0.000000000,-2.931822538,-71.990974426,0.000000000,-0.056998730,-14.591891289
1748602356.007009,29.656000000,0.000000000,333.357879639,0.000000000,0.000000000,-2.958824396,-70.634582520,0.000000000,-0.056998730,-14.559848785
1748602356.009436,29.658000000,0.000000000,333.357879639,0.000000000,0.000000000,-2.985823393,-71.468986511,0.000000000,-0.056998730,-14.531035423
1748602356.011885,29.661000000,0.000000000,333.357879639,0.000000000,0.000000000,-2.999325752,-74.047531128,0.000000000,-0.056998730,-14.504914284
1748602356.014501,29.663000000,0.000000000,333.357879639,0.000000000,0.000000000,-3.012825251,-74.488235474,0.000000000,-0.056998730,-14.481418610
1748602356.016935,29.666000000,0.000000000,333.357879639,0.000000000,0.000000000,-3.053326607,-71.742271423,0.000000000,-0.056998730,-14.460703850
1748602356.019260,29.668000000,0.000000000,333.357879639,0.000000000,0.000000000,-3.080325603,-74.467956543,0.000000000,-0.056998730,-14.441897392
1748602356.021648,29.670000000,0.000000000,333.357879639,0.000000000,0.000000000,-3.120827198,-73.204864502,0.000000000,-0.056998730,-14.425204277
1748602356.024022,29.673000000,0.000000000,333.357879639,0.000000000,0.000000000,-3.134329319,-78.150581360,0.000000000,-0.056998730,-14.409826279
1748602356.026423,29.675000000,0.000000000,333.357879639,0.000000000,0.000000000,-3.134329319,-80.342849731,0.000000000,-0.056998730,-14.395803452
1748602356.028791,29.677000000,0.000000000,333.357879639,0.000000000,0.000000000,-3.147828817,-78.552482605,0.000000000,-0.056998730,-14.383378983
1748602356.031203,29.680000000,0.000000000,333.357879639,0.000000000,0.000000000,-3.188330173,-75.320716858,0.000000000,-0.066000223,-16.127828598
1748602356.033566,29.682000000,0.000000000,333.357879639,0.000000000,0.000000000,-3.255830765,-73.047042847,0.000000000,-0.066000223,-16.168178558
1748602356.035958,29.685000000,0.000000000,333.357879639,0.000000000,0.000000000,-3.269332886,-82.237907410,0.000000000,-0.066000223,-16.204027176
1748602356.038333,29.687000000,0.000000000,333.357879639,0.000000000,0.000000000,-3.269332886,-84.449508667,0.000000000,-0.066000223,-16.236160278
1748602356.040707,29.689000000,0.000000000,333.357879639,0.000000000,0.000000000,-3.296332121,-80.837242126,0.000000000,-0.066000223,-16.265398026
1748602356.043140,29.692000000,0.000000000,333.357879639,0.000000000,0.000000000,-3.350332975,-78.049667358,0.000000000,-0.066000223,-16.292095184
1748602356.045553,29.694000000,0.000000000,333.357879639,0.000000000,0.000000000,-3.377334833,-83.434799194,0.000000000,-0.066000223,-16.315879822
1748602356.047969,29.697000000,0.000000000,333.357879639,0.000000000,0.000000000,-3.390834332,-85.949035645,0.000000000,-0.066000223,-16.337162018
1748602356.050395,29.699000000,0.000000000,333.357879639,0.000000000,0.000000000,-3.390834332,-88.145446777,0.000000000,-0.066000223,-16.356164932
1748602356.052797,29.701000000,0.000000000,333.357879639,0.000000000,0.000000000,-3.417836189,-84.618865967,0.000000000,-0.066000223,-16.373624802
1748602356.055187,29.704000000,0.000000000,333.357879639,0.000000000,0.000000000,-3.444835186,-85.404411316,0.000000000,-0.066000223,-16.389383316
1748602356.057567,29.706000000,0.000000000,333.357879639,0.000000000,0.000000000,-3.485336542,-84.435890198,0.000000000,-0.066000223,-16.403793335
1748602356.059947,29.709000000,0.000000000,333.357879639,0.000000000,0.000000000,-3.485336542,-91.020103455,0.000000000,-0.066000223,-16.416275024
