__time,/psm_joint_telemetry/header/stamp,/psm_joint_telemetry/insertion/effort,/psm_joint_telemetry/insertion/position,/psm_joint_telemetry/insertion/velocity,/psm_joint_telemetry/pitch/effort,/psm_joint_telemetry/pitch/position,/psm_joint_telemetry/pitch/velocity,/psm_joint_telemetry/roll/effort,/psm_joint_telemetry/roll/position,/psm_joint_telemetry/roll/velocity
1748598495.982378,46.483000000,0.000000000,-1000.073669434,0.000000000,0.000000000,-18.659717560,-130.661544800,0.000000000,-19.965000153,9.114556313
1748598495.984780,46.486000000,0.000000000,-1000.073669434,0.000000000,0.000000000,-18.646215439,-128.014312744,0.000000000,-19.965000153,9.093658447
1748598495.987211,46.488000000,0.000000000,-1000.073669434,0.000000000,0.000000000,-18.619215012,-129.362670898,0.000000000,-19.965000153,9.074914932
1748598495.989599,46.491000000,0.000000000,-1000.073669434,0.000000000,0.000000000,-18.592214584,-128.599273682,0.000000000,-19.965000153,9.058064461
1748598495.991983,46.493000000,0.000000000,-1000.073669434,0.000000000,0.000000000,-18.578714371,-126.067207336,0.000000000,-19.965000153,9.042860031
1748598495.994401,46.496000000,0.000000000,-1000.073669434,0.000000000,0.000000000,-18.565214157,-125.647338867,0.000000000,-19.965000153,9.029183388
1748598495.996878,46.498000000,0.000000000,-1000.073669434,0.000000000,0.000000000,-18.551713943,-125.247741699,0.000000000,-19.965000153,9.016883850
1748598495.999326,46.500000000,0.000000000,-1000.073669434,0.000000000,0.000000000,-18.538213730,-124.749877930,0.000000000,-19.965000153,9.005823135
1748598496.001741,46.503000000,0.000000000,-1000.073669434,0.000000000,0.000000000,-18.524713516,-124.395355225,0.000000000,-19.965000153,8.995876312
1748598496.004109,46.505000000,0.000000000,-1000.073669434,0.000000000,0.000000000,-18.511211395,-123.990371704,0.000000000,-19.965000153,8.986932755
1748598496.006519,46.508000000,0.000000000,-1000.073669434,0.000000000,0.000000000,-18.497713089,-123.601081848,0.000000000,-19.965000153,8.978892326
1748598496.008902,46.510000000,0.000000000,-1000.073669434,0.000000000,0.000000000,-18.484210968,-123.200256348,0.000000000,-19.965000153,8.971663475
1748598496.011351,46.513000000,0.000000000,-1000.073669434,0.000000000,0.000000000,-18.457210541,-124.492599487,0.000000000,-19.965000153,8.965231895
1748598496.013841,46.515000000,0.000000000,-1000.073669434,0.000000000,0.000000000,-18.430210114,-123.669494629,0.000000000,-19.965000153,8.959460258
1748598496.016345,46.517000000,0.000000000,-1000.073669434,0.000000000,0.000000000,-18.430210114,-119.343215942,0.000000000,-19.965000153,8.954145432
1748598496.019040,46.520000000,0.000000000,-1000.073669434,0.000000000,0.000000000,-18.416709900,-121.012794495,0.000000000,-19.965000153,8.949430466
1748598496.021450,46.523000000,0.000000000,-1000.073669434,0.000000000,0.000000000,-18.403209686,-120.540718079,0.000000000,-19.965000153,8.945195198
1748598496.024012,46.525000000,0.000000000,-1000.073669434,0.000000000,0.000000000,-18.389709473,-120.208869934,0.000000000,-19.965000153,8.941390991
1748598496.026383,46.528000000,0.000000000,-1000.073669434,0.000000000,0.000000000,-18.376209259,-119.795707703,0.000000000,-19.965000153,8.937974930
1748598496.028788,46.530000000,0.000000000,-1000.073669434,0.000000000,0.000000000,-18.376209259,-117.700569153,0.000000000,-19.965000153,8.934838295
1748598496.031149,46.532000000,0.000000000,-1000.073669434,0.000000000,0.000000000,-18.362709045,-119.466461182,0.000000000,-19.965000153,8.932084084
1748598496.033676,46.535000000,0.000000000,-1000.073669434,0.000000000,0.000000000,-18.349208832,-119.114006042,0.000000000,-19.965000153,8.929615021
1748598496.036065,46.537000000,0.000000000,-1000.073669434,0.000000000,0.000000000,-18.335708618,-118.586479187,0.000000000,-19.965000153,8.927399635
1748598496.038441,46.540000000,0.000000000,-1000.073669434,0.000000000,0.000000000,-18.322208405,-118.261810303,0.000000000,-19.965000153,8.925414085
1748598496.040790,46.542000000,0.000000000,-1000.073669434,0.000000000,0.000000000,-18.308708191,-117.853919983,0.000000000,-19.965000153,8.923633575
1748598496.043140,46.544000000,0.000000000,-1000.073669434,0.000000000,0.000000000,-18.308708191,-115.647262573,0.000000000,-19.965000153,8.921966553
1748598496.045600,46.547000000,0.000000000,-1000.073669434,0.000000000,0.000000000,-18.295207977,-117.473258972,0.000000000,-19.965000153,8.920539856
1748598496.047904,46.549000000,0.000000000,-1000.073669434,0.000000000,0.000000000,-18.268207550,-118.862136841,0.000000000,-19.965000153,8.919333458
1748598496.050347,46.552000000,0.000000000,-1000.073669434,0.000000000,0.000000000,-18.254705429,-116.196823120,0.000000000,-19.965000153,8.918191910
1748598496.052735,46.554000000,0.000000000,-1000.073669434,0.000000000,0.000000000,-18.241207123,-115.755012512,0.000000000,-19.965000153,8.917171478
1748598496.055099,46.556000000,0.000000000,-1000.073669434,0.000000000,0.000000000,-18.227705002,-115.382827759,0.000000000,-19.965000153,8.916260719
1748598496.057424,46.559000000,0.000000000,-1000.073669434,0.000000000,0.000000000,-18.200704575,-116.827629089,0.000000000,-19.965000153,8.915520668
1748598496.059800,46.561000000,0.000000000,-1000.073669434,0.000000000,0.000000000,-18.187204361,-114.201286316,0.000000000,-19.965000153,8.914796829
1748598496.062186,46.563000000,0.000000000,-1000.073669434,0.000000000,0.000000000,-18.173704147,-113.749099731,0.000000000,-19.965000153,8.914153099
1748598496.064569,46.566000000,0.000000000,-1000.073669434,0.000000000,0.000000000,-18.160203934,-113.346809387,0.000000000,-19.965000153,8.913580894
1748598496.066967,46.568000000,0.000000000,-1000.073669434,0.000000000,0.000000000,-18.133203506,-114.697998047,0.000000000,-19.965000153,8.913146973
1748598496.069359,46.571000000,0.000000000,-1000.073669434,0.000000000,0.000000000,-18.119701385,-112.081062317,0.000000000,-19.965000153,8.912697792
1748598496.071789,46.573000000,0.000000000,-1000.073669434,0.000000000,0.000000000,-18.106203079,-111.692703247,0.000000000,-19.965000153,8.912301064
1748598496.074228,46.575000000,0.000000000,-1000.073669434,0.000000000,0.000000000,-18.079202652,-112.988685608,0.000000000,-19.965000153,8.912023544
1748598496.076681,46.578000000,0.000000000,-1000.073669434,0.000000000,0.000000000,-18.052202225,-112.140907288,0.000000000,-19.965000153,8.911789894
1748598496.079116,46.580000000,0.000000000,-1000.073669434,0.000000000,0.000000000,-18.025199890,-111.311080933,0.000000000,-19.965000153,8.911593437
1748598496.081626,46.583000000,0.000000000,-1000.073669434,0.000000000,0.000000000,-18.011699677,-108.777503967,0.000000000,-19.965000153,8.911357880
1748598496.084034,46.585000000,0.000000000,-1000.073669434,0.000000000,0.000000000,-17.998199463,-108.357101440,0.000000000,-19.965000153,8.911154747
1748598496.086432,46.588000000,0.000000000,-1000.073669434,0.000000000,0.000000000,-17.971199036,-109.768173218,0.000000000,-19.965000153,8.911051750
1748598496.088818,46.590000000,0.000000000,-1000.073669434,0.000000000,0.000000000,-17.957698822,-107.164642334,0.000000000,-19.965000153,8.910899162
1748598496.091176,46.592000000,0.000000000,-1000.073669434,0.000000000,0.000000000,-17.944198608,-106.777091980,0.000000000,-19.965000153,8.910771370
1748598496.093619,46.595000000,0.000000000,-1000.073669434,0.000000000,0.000000000,-17.917198181,-108.153121948,0.000000000,-19.965000153,8.910735130
1748598496.096120,46.597000000,0.000000000,-1000.073669434,0.000000000,0.000000000,-17.903697968,-105.481582642,0.000000000,-19.965000153,8.910644531
1748598496.098709,46.600000000,0.000000000,-1000.073669434,0.000000000,0.000000000,-17.876697540,-106.746879578,0.000000000,-19.965000153,8.910644531
1748598496.101054,46.602000000,0.000000000,-1000.073669434,0.000000000,0.000000000,-17.863195419,-104.162712097,0.000000000,-19.965000153,8.910585403
1748598496.103486,46.605000000,0.000000000,-1000.073669434,0.000000000,0.000000000,-17.849697113,-103.867210388,0.000000000,-19.965000153,8.910539627
1748598496.105843,46.607000000,0.000000000,-1000.073669434,0.000000000,0.000000000,-17.822696686,-105.196731567,0.000000000,-19.965000153,8.910578728
1748598496.108160,46.609000000,0.000000000,-1000.073669434,0.000000000,0.000000000,-17.809194565,-102.684837341,0.000000000,-19.965000153,8.910555840
1748598496.110641,46.612000000,0.000000000,-1000.073669434,0.000000000,0.000000000,-17.795696259,-102.300399780,0.000000000,-19.965000153,8.910541534
1748598496.113106,46.614000000,0.000000000,-1000.073669434,0.000000000,0.000000000,-17.768693924,-103.506706238,0.000000000,-19.965000153,8.910610199
1748598496.115459,46.617000000,0.000000000,-1000.073669434,0.000000000,0.000000000,-17.768693924,-99.220619202,0.000000000,-19.965000153,8.910540581
1748598496.117846,46.619000000,0.000000000,-1000.073669434,0.000000000,0.000000000,-17.755193710,-101.049468994,0.000000000,-19.965000153,8.910550117
1748598496.120159,46.621000000,0.000000000,-1000.073669434,0.000000000,0.000000000,-17.714693069,-104.203498840,0.000000000,-19.965000153,8.910713196
1748598496.122491,46.624000000,0.000000000,-1000.073669434,0.000000000,0.000000000,-17.701190948,-99.426300049,0.000000000,-19.965000153,8.910735130
1748598496.124854,46.626000000,0.000000000,-1000.073669434,0.000000000,0.000000000,-17.701190948,-97.167259216,0.000000000,-19.965000153,8.910689354
1748598496.127193,46.628000000,0.000000000,-1000.073669434,0.000000000,0.000000000,-17.687692642,-98.976020813,0.000000000,-19.965000153,8.910721779
1748598496.129633,46.631000000,0.000000000,-1000.073669434,0.000000000,0.000000000,-17.674190521,-98.594360352,0.000000000,-19.965000153,8.910757065
1748598496.132025,46.633000000,0.000000000,-1000.073669434,0.000000000,0.000000000,-17.674190521,-96.345932007,0.000000000,-19.965000153,8.910723686
1748598496.134387,46.636000000,0.000000000,-1000.073669434,0.000000000,0.000000000,-17.660692215,-98.122421265,0.000000000,-19.965000153,8.910765648
1748598496.136757,46.638000000,0.000000000,-1000.073669434,0.000000000,0.000000000,-17.647190094,-97.740867615,0.000000000,-19.965000153,8.910813332
1748598496.139127,46.640000000,0.000000000,-1000.073669434,0.000000000,0.000000000,-17.620189667,-99.170898438,0.000000000,-19.965000153,8.910935402
1748598496.141544,46.643000000,0.000000000,-1000.073669434,0.000000000,0.000000000,-17.579689026,-100.127532959,0.000000000,-19.965000153,8.911132813
1748598496.143929,46.645000000,0.000000000,-1000.073669434,0.000000000,0.000000000,-17.579689026,-93.471298218,0.000000000,-19.965000153,8.911112785
1748598496.146390,46.648000000,0.000000000,-1000.073669434,0.000000000,0.000000000,-17.579689026,-93.471298218,0.000000000,-19.965000153,8.911094666
1748598496.148911,46.650000000,0.000000000,-1000.073669434,0.000000000,0.000000000,-17.539188385,-98.804260254,0.000000000,-19.965000153,8.911299706
1748598496.151323,46.652000000,0.000000000,-1000.073669434,0.000000000,0.000000000,-17.512187958,-95.588356018,0.000000000,-19.965000153,8.911431313
1748598496.153793,46.655000000,0.000000000,-1000.073669434,0.000000000,0.000000000,-17.512187958,-91.417991638,0.000000000,-19.965000153,8.911418915
1748598496.156176,46.657000000,0.000000000,-1000.073669434,0.000000000,0.000000000,-17.498687744,-93.153717041,0.000000000,-19.965000153,8.911479950
1748598496.158588,46.660000000,0.000000000,-1000.073669434,0.000000000,0.000000000,-17.471687317,-94.535514832,0.000000000,-19.965000153,8.911616325
1748598496.160959,46.662000000,0.000000000,-1000.073669434,0.000000000,0.000000000,-17.485187531,-88.411987305,0.000000000,-19.965000153,8.911533356
1748598496.163386,46.665000000,0.000000000,-1000.073669434,0.000000000,0.000000000,-17.471687317,-92.407562256,0.000000000,-19.965000153,8.911598206
1748598496.165789,46.667000000,0.000000000,-1000.073669434,0.000000000,0.000000000,-17.444684982,-93.712646484,0.000000000,-19.965000153,8.911737442
1748598496.168160,46.669000000,0.000000000,-1000.073669434,0.000000000,0.000000000,-17.417684555,-92.951072693,0.000000000,-19.965000153,8.911877632
1748598496.170551,46.672000000,0.000000000,-1000.073669434,0.000000000,0.000000000,-17.417684555,-88.543304443,0.000000000,-19.965000153,8.911871910
1748598496.172945,46.674000000,0.000000000,-1000.073669434,0.000000000,0.000000000,-17.404186249,-90.339965820,0.000000000,-19.965000153,8.911939621
1748598496.175316,46.677000000,0.000000000,-1000.073669434,0.000000000,0.000000000,-17.377185822,-91.697120667,0.000000000,-19.965000153,8.912079811
1748598496.177690,46.679000000,0.000000000,-1000.073669434,0.000000000,0.000000000,-17.363683701,-89.121589661,0.000000000,-19.965000153,8.912150383
1748598496.180085,46.681000000,0.000000000,-1000.073669434,0.000000000,0.000000000,-17.350183487,-88.705009460,0.000000000,-19.965000153,8.912218094
1748598496.182477,46.684000000,0.000000000,-1000.073669434,0.000000000,0.000000000,-17.336683273,-88.286911011,0.000000000,-19.965000153,8.912289619
1748598496.184890,46.686000000,0.000000000,-1000.073669434,0.000000000,0.000000000,-17.323183060,-87.862457275,0.000000000,-19.965000153,8.912358284
1748598496.187284,46.688000000,0.000000000,-1000.073669434,0.000000000,0.000000000,-17.323183060,-85.668670654,0.000000000,-19.965000153,8.912355423
1748598496.189635,46.691000000,0.000000000,-1000.073669434,0.000000000,0.000000000,-17.309682846,-87.460052490,0.000000000,-19.965000153,8.912426949
1748598496.191999,46.693000000,0.000000000,-1000.073669434,0.000000000,0.000000000,-17.309682846,-85.258010864,0.000000000,-19.965000153,8.912425041
1748598496.194356,46.696000000,0.000000000,-1000.073669434,0.000000000,0.000000000,-17.296182632,-87.078315735,0.000000000,-19.965000153,8.912494659
1748598496.196823,46.698000000,0.000000000,-1000.073669434,0.000000000,0.000000000,-17.296182632,-84.847351074,0.000000000,-19.965000153,8.912492752
1748598496.199395,46.700000000,0.000000000,-1000.073669434,0.000000000,0.000000000,-17.296182632,-84.847351074,0.000000000,-19.965000153,8.912491798
1748598496.201936,46.703000000,0.000000000,-1000.073669434,0.000000000,0.000000000,-17.296182632,-84.847351074,0.000000000,-19.965000153,8.912489891
1748598496.204313,46.706000000,0.000000000,-1000.073669434,0.000000000,0.000000000,-17.269182205,-88.105903625,0.000000000,-19.965000153,8.912634850
1748598496.206683,46.708000000,0.000000000,-1000.073669434,0.000000000,0.000000000,-17.269182205,-84.026023865,0.000000000,-19.965000153,8.912633896
1748598496.209076,46.710000000,0.000000000,-1000.073669434,0.000000000,0.000000000,-17.269182205,-84.026023865,0.000000000,-19.965000153,8.912632942
1748598496.211430,46.713000000,0.000000000,-1000.073669434,0.000000000,0.000000000,-17.255680084,-85.823196411,0.000000000,-19.965000153,8.912705421
1748598496.213834,46.715000000,0.000000000,-1000.073669434,0.000000000,0.000000000,-17.242181778,-85.427818298,0.000000000,-19.965000153,8.912777901
1748598496.216182,46.717000000,0.000000000,-1000.073669434,0.000000000,0.000000000,-17.242181778,-83.204704285,0.000000000,-19.965000153,8.912776947
1748598496.218573,46.720000000,0.000000000,-1000.073669434,0.000000000,0.000000000,-17.242181778,-83.204704285,0.000000000,-19.965000153,8.912775993
1748598496.220954,46.722000000,0.000000000,-1000.073669434,0.000000000,0.000000000,-17.242181778,-83.204704285,0.000000000,-19.965000153,8.912775040
1748598496.223336,46.725000000,0.000000000,-1000.073669434,0.000000000,0.000000000,-17.242181778,-83.204704285,0.000000000,-19.965000153,8.912775040
1748598496.225732,46.727000000,0.000000000,-1000.073669434,0.000000000,0.000000000,-17.242181778,-83.204704285,0.000000000,-19.965000153,8.912774086
1748598496.228088,46.729000000,0.000000000,-1000.073669434,0.000000000,0.000000000,-17.242181778,-83.204704285,0.000000000,-19.965000153,8.912774086
1748598496.230566,46.732000000,0.000000000,-1000.073669434,0.000000000,0.000000000,-17.242181778,-83.204704285,0.000000000,-19.965000153,8.912773132
1748598496.232928,46.734000000,0.000000000,-1000.073669434,0.000000000,0.000000000,-17.242181778,-83.204704285,0.000000000,-19.965000153,8.912773132
1748598496.235382,46.737000000,0.000000000,-1000.073669434,0.000000000,0.000000000,-17.242181778,-83.204704285,0.000000000,-19.965000153,8.912772179
1748598496.237806,46.739000000,0.000000000,-1000.073669434,0.000000000,0.000000000,-17.242181778,-83.204704285,0.000000000,-19.965000153,8.912772179
1748598496.240256,46.741000000,0.000000000,-1000.073669434,0.000000000,0.000000000,-17.228679657,-84.971748352,0.000000000,-19.965000153,8.912845612
1748598496.242704,46.744000000,0.000000000,-1000.073669434,0.000000000,0.000000000,-17.201679230,-86.265426636,0.000000000,-19.965000153,8.912991524
1748598496.245158,46.746000000,0.000000000,-1000.073669434,0.000000000,0.000000000,-17.201679230,-81.972656250,0.000000000,-19.965000153,8.912991524
1748598496.247652,46.749000000,0.000000000,-1000.073669434,0.000000000,0.000000000,-17.201679230,-81.972656250,0.000000000,-19.965000153,8.912991524
1748598496.250013,46.751000000,0.000000000,-1000.073669434,0.000000000,0.000000000,-17.201679230,-81.972656250,0.000000000,-19.965000153,8.912991524
1748598496.252375,46.754000000,0.000000000,-1000.073669434,0.000000000,0.000000000,-17.174678802,-85.590698242,0.000000000,-19.965000153,8.913138390
1748598496.254722,46.756000000,0.000000000,-1000.073669434,0.000000000,0.000000000,-17.161178589,-82.969757080,0.000000000,-19.965000153,8.913210869
1748598496.257108,46.758000000,0.000000000,-1000.073669434,0.000000000,0.000000000,-17.174678802,-78.911827087,0.000000000,-19.965000153,8.913137436
1748598496.259476,46.761000000,0.000000000,-1000.073669434,0.000000000,0.000000000,-17.161178589,-82.954757690,0.000000000,-19.965000153,8.913210869
1748598496.261844,46.763000000,0.000000000,-1000.073669434,0.000000000,0.000000000,-17.161178589,-80.740676880,0.000000000,-19.965000153,8.913210869
1748598496.264268,46.765000000,0.000000000,-1000.073669434,0.000000000,0.000000000,-17.161178589,-80.740676880,0.000000000,-19.965000153,8.913210869
1748598496.266650,46.768000000,0.000000000,-1000.073669434,0.000000000,0.000000000,-17.161178589,-80.740676880,0.000000000,-19.965000153,8.913210869
1748598496.269050,46.770000000,0.000000000,-1000.073669434,0.000000000,0.000000000,-17.161178589,-80.740676880,0.000000000,-19.965000153,8.913210869
1748598496.271422,46.773000000,0.000000000,-1000.073669434,0.000000000,0.000000000,-17.161178589,-80.740676880,0.000000000,-19.965000153,8.913210869
1748598496.273782,46.775000000,0.000000000,-1000.073669434,0.000000000,0.000000000,-17.161178589,-80.740676880,0.000000000,-19.965000153,8.913210869
1748598496.276142,46.777000000,0.000000000,-1000.073669434,0.000000000,0.000000000,-17.161178589,-80.740676880,0.000000000,-19.965000153,8.913210869
1748598496.278509,46.780000000,0.000000000,-1000.073669434,0.000000000,0.000000000,-17.161178589,-80.740676880,0.000000000,-19.965000153,8.913210869
1748598496.280983,46.782000000,0.000000000,-1000.073669434,0.000000000,0.000000000,-17.161178589,-80.740676880,0.000000000,-19.965000153,8.913209915
1748598496.283378,46.785000000,0.000000000,-1000.073669434,0.000000000,0.000000000,-17.161178589,-80.740676880,0.000000000,-19.965000153,8.913209915
1748598496.285773,46.787000000,0.000000000,-1000.073669434,0.000000000,0.000000000,-17.161178589,-80.740676880,0.000000000,-19.965000153,8.913209915
1748598496.288207,46.789000000,0.000000000,-1000.073669434,0.000000000,0.000000000,-17.161178589,-80.740676880,0.000000000,-19.965000153,8.913209915
1748598496.290648,46.792000000,0.000000000,-1000.073669434,0.000000000,0.000000000,-17.161178589,-80.740676880,0.000000000,-19.965000153,8.913209915
1748598496.293151,46.794000000,0.000000000,-1000.073669434,0.000000000,0.000000000,-17.174678802,-78.989974976,0.000000000,-19.965000153,8.913136482
1748598496.295631,46.797000000,0.000000000,-1000.073669434,0.000000000,0.000000000,-17.161178589,-82.871429443,0.000000000,-19.965000153,8.913209915
1748598496.298174,46.799000000,0.000000000,-1000.073669434,0.000000000,0.000000000,-17.161178589,-80.740676880,0.000000000,-19.965000153,8.913209915
1748598496.300484,46.802000000,0.000000000,-1000.073669434,0.000000000,0.000000000,-17.174678802,-79.044464111,0.000000000,-19.965000153,8.913136482
1748598496.302839,46.804000000,0.000000000,-1000.073669434,0.000000000,0.000000000,-17.174678802,-81.151336670,0.000000000,-19.965000153,8.913136482
1748598496.305186,46.806000000,0.000000000,-1000.073669434,0.000000000,0.000000000,-17.174678802,-81.151336670,0.000000000,-19.965000153,8.913136482
1748598496.307587,46.809000000,0.000000000,-1000.073669434,0.000000000,0.000000000,-17.174678802,-81.151336670,0.000000000,-19.965000153,8.913136482
1748598496.309967,46.811000000,0.000000000,-1000.073669434,0.000000000,0.000000000,-17.174678802,-81.151336670,0.000000000,-19.965000153,8.913136482
1748598496.312343,46.814000000,0.000000000,-1000.073669434,0.000000000,0.000000000,-17.174678802,-81.151336670,0.000000000,-19.965000153,8.913136482
1748598496.314733,46.816000000,0.000000000,-1000.073669434,0.000000000,0.000000000,-17.161178589,-82.958488464,0.000000000,-19.965000153,8.913209915
1748598496.317104,46.818000000,0.000000000,-1000.073669434,0.000000000,0.000000000,-17.174678802,-78.937255859,0.000000000,-19.965000153,8.913136482
1748598496.319470,46.821000000,0.000000000,-1000.073669434,0.000000000,0.000000000,-17.174678802,-81.151336670,0.000000000,-19.965000153,8.913136482
1748598496.321852,46.823000000,0.000000000,-1000.073669434,0.000000000,0.000000000,-17.174678802,-81.151336670,0.000000000,-19.965000153,8.913136482
1748598496.324224,46.825000000,0.000000000,-1000.073669434,0.000000000,0.000000000,-17.174678802,-81.151336670,0.000000000,-19.965000153,8.913136482
1748598496.326594,46.828000000,0.000000000,-1000.073669434,0.000000000,0.000000000,-17.174678802,-81.151336670,0.000000000,-19.965000153,8.913136482
1748598496.328967,46.830000000,0.000000000,-1000.073669434,0.000000000,0.000000000,-17.174678802,-81.151336670,0.000000000,-19.965000153,8.913136482
1748598496.331410,46.833000000,0.000000000,-1000.073669434,0.000000000,0.000000000,-17.174678802,-81.151336670,0.000000000,-19.965000153,8.913136482
1748598496.333809,46.835000000,0.000000000,-1000.073669434,0.000000000,0.000000000,-17.174678802,-81.151336670,0.000000000,-19.965000153,8.913136482
1748598496.336260,46.837000000,0.000000000,-1000.073669434,0.000000000,0.000000000,-17.174678802,-81.151336670,0.000000000,-19.965000153,8.913136482
1748598496.338681,46.840000000,0.000000000,-1000.073669434,0.000000000,0.000000000,-17.174678802,-81.151336670,0.000000000,-19.965000153,8.913136482
1748598496.341069,46.842000000,0.000000000,-1000.073669434,0.000000000,0.000000000,-17.174678802,-81.151336670,0.000000000,-19.965000153,8.913136482
1748598496.343440,46.845000000,0.000000000,-1000.073669434,0.000000000,0.000000000,-17.174678802,-81.151336670,0.000000000,-19.965000153,8.913136482
1748598496.345812,46.847000000,0.000000000,-1000.073669434,0.000000000,0.000000000,-17.174678802,-81.151336670,0.000000000,-19.965000153,8.913136482
1748598496.348271,46.849000000,0.000000000,-1000.073669434,0.000000000,0.000000000,-17.174678802,-81.151336670,0.000000000,-19.965000153,8.913136482
1748598496.350647,46.852000000,0.000000000,-1000.073669434,0.000000000,0.000000000,-17.174678802,-81.151336670,0.000000000,-19.965000153,8.913136482
1748598496.353105,46.854000000,0.000000000,-1000.073669434,0.000000000,0.000000000,-17.174678802,-81.151336670,0.000000000,-19.965000153,8.913136482
1748598496.355470,46.857000000,0.000000000,-1000.073669434,0.000000000,0.000000000,-17.174678802,-81.151336670,0.000000000,-19.965000153,8.913136482
1748598496.357874,46.859000000,0.000000000,-1000.073669434,0.000000000,0.000000000,-17.188179016,-79.345115662,0.000000000,-19.965000153,8.913063049
1748598496.360259,46.861000000,0.000000000,-1000.073669434,0.000000000,0.000000000,-17.188179016,-81.561996460,0.000000000,-19.965000153,8.913063049
1748598496.362646,46.864000000,0.000000000,-1000.073669434,0.000000000,0.000000000,-17.188179016,-81.561996460,0.000000000,-19.965000153,8.913063049
1748598496.365129,46.866000000,0.000000000,-1000.073669434,0.000000000,0.000000000,-17.188179016,-81.561996460,0.000000000,-19.965000153,8.913063049
1748598496.367612,46.869000000,0.000000000,-1000.073669434,0.000000000,0.000000000,-17.188179016,-81.561996460,0.000000000,-19.965000153,8.913063049
1748598496.369999,46.871000000,0.000000000,-1000.073669434,0.000000000,0.000000000,-17.188179016,-81.561996460,0.000000000,-19.965000153,8.913063049
1748598496.372422,46.874000000,0.000000000,-1000.073669434,0.000000000,0.000000000,-17.201679230,-79.773376465,0.000000000,-19.965000153,8.912989616
1748598496.374795,46.876000000,0.000000000,-1000.073669434,0.000000000,0.000000000,-17.228679657,-78.388061523,0.000000000,-19.965000153,8.912842751
1748598496.377174,46.878000000,0.000000000,-1000.073669434,0.000000000,0.000000000,-17.228679657,-82.793983459,0.000000000,-19.965000153,8.912842751
1748598496.379634,46.881000000,0.000000000,-1000.073669434,0.000000000,0.000000000,-17.228679657,-82.793983459,0.000000000,-19.965000153,8.912842751
1748598496.382067,46.883000000,0.000000000,-1000.073669434,0.000000000,0.000000000,-17.228679657,-82.793983459,0.000000000,-19.965000153,8.912842751
1748598496.384496,46.886000000,0.000000000,-1000.073669434,0.000000000,0.000000000,-17.242181778,-81.054512024,0.000000000,-19.965000153,8.912769318
1748598496.386934,46.888000000,0.000000000,-1000.073669434,0.000000000,0.000000000,-17.269182205,-79.710380554,0.000000000,-19.965000153,8.912622452
1748598496.389407,46.891000000,0.000000000,-1000.073669434,0.000000000,0.000000000,-17.269182205,-84.026023865,0.000000000,-19.965000153,8.912622452
1748598496.391818,46.893000000,0.000000000,-1000.073669434,0.000000000,0.000000000,-17.269182205,-84.026023865,0.000000000,-19.965000153,8.912622452
1748598496.394205,46.895000000,0.000000000,-1000.073669434,0.000000000,0.000000000,-17.269182205,-84.026023865,0.000000000,-19.965000153,8.912622452
1748598496.396583,46.898000000,0.000000000,-1000.073669434,0.000000000,0.000000000,-17.282680511,-82.236740112,0.000000000,-19.965000153,8.912549019
1748598496.399096,46.900000000,0.000000000,-1000.073669434,0.000000000,0.000000000,-17.269182205,-86.240722656,0.000000000,-19.965000153,8.912622452
1748598496.401418,46.903000000,0.000000000,-1000.073669434,0.000000000,0.000000000,-17.269182205,-84.026023865,0.000000000,-19.965000153,8.912622452
1748598496.403774,46.905000000,0.000000000,-1000.073669434,0.000000000,0.000000000,-17.269182205,-84.026023865,0.000000000,-19.965000153,8.912622452
1748598496.406143,46.907000000,0.000000000,-1000.073669434,0.000000000,0.000000000,-17.282680511,-82.214454651,0.000000000,-19.965000153,8.912549019
1748598496.408518,46.910000000,0.000000000,-1000.073669434,0.000000000,0.000000000,-17.269182205,-86.246330261,0.000000000,-19.965000153,8.912622452
1748598496.410879,46.912000000,0.000000000,-1000.073669434,0.000000000,0.000000000,-17.282680511,-82.208808899,0.000000000,-19.965000153,8.912549019
1748598496.413307,46.915000000,0.000000000,-1000.073669434,0.000000000,0.000000000,-17.282680511,-84.436630249,0.000000000,-19.965000153,8.912549019
1748598496.415711,46.917000000,0.000000000,-1000.073669434,0.000000000,0.000000000,-17.282680511,-84.436630249,0.000000000,-19.965000153,8.912549019
1748598496.418086,46.919000000,0.000000000,-1000.073669434,0.000000000,0.000000000,-17.282680511,-84.436630249,0.000000000,-19.965000153,8.912549019
1748598496.420485,46.922000000,0.000000000,-1000.073669434,0.000000000,0.000000000,-17.282680511,-84.436630249,0.000000000,-19.965000153,8.912549019
1748598496.422859,46.924000000,0.000000000,-1000.073669434,0.000000000,0.000000000,-17.269182205,-86.230522156,0.000000000,-19.965000153,8.912622452
1748598496.425252,46.926000000,0.000000000,-1000.073669434,0.000000000,0.000000000,-17.282680511,-82.224723816,0.000000000,-19.965000153,8.912549019
1748598496.427640,46.929000000,0.000000000,-1000.073669434,0.000000000,0.000000000,-17.282680511,-84.436630249,0.000000000,-19.965000153,8.912549019
1748598496.430115,46.931000000,0.000000000,-1000.073669434,0.000000000,0.000000000,-17.282680511,-84.436630249,0.000000000,-19.965000153,8.912549019
1748598496.432560,46.934000000,0.000000000,-1000.073669434,0.000000000,0.000000000,-17.282680511,-84.436630249,0.000000000,-19.965000153,8.912549019
1748598496.434924,46.936000000,0.000000000,-1000.073669434,0.000000000,0.000000000,-17.296182632,-82.699783325,0.000000000,-19.965000153,8.912475586
1748598496.437339,46.939000000,0.000000000,-1000.073669434,0.000000000,0.000000000,-17.282680511,-86.641754150,0.000000000,-19.965000153,8.912549019
1748598496.439730,46.941000000,0.000000000,-1000.073669434,0.000000000,0.000000000,-17.282680511,-84.436630249,0.000000000,-19.965000153,8.912549019
1748598496.442146,46.943000000,0.000000000,-1000.073669434,0.000000000,0.000000000,-17.282680511,-84.436630249,0.000000000,-19.965000153,8.912549019
1748598496.444535,46.946000000,0.000000000,-1000.073669434,0.000000000,0.000000000,-17.296182632,-82.665977478,0.000000000,-19.965000153,8.912475586
1748598496.446906,46.948000000,0.000000000,-1000.073669434,0.000000000,0.000000000,-17.282680511,-86.644523621,0.000000000,-19.965000153,8.912549019
1748598496.449339,46.951000000,0.000000000,-1000.073669434,0.000000000,0.000000000,-17.282680511,-84.436630249,0.000000000,-19.965000153,8.912549019
1748598496.451714,46.953000000,0.000000000,-1000.073669434,0.000000000,0.000000000,-17.282680511,-84.436630249,0.000000000,-19.965000153,8.912549019
1748598496.454087,46.955000000,0.000000000,-1000.073669434,0.000000000,0.000000000,-17.282680511,-84.436630249,0.000000000,-19.965000153,8.912549019
1748598496.456465,46.958000000,0.000000000,-1000.073669434,0.000000000,0.000000000,-17.282680511,-84.436630249,0.000000000,-19.965000153,8.912549019
1748598496.458854,46.960000000,0.000000000,-1000.073669434,0.000000000,0.000000000,-17.296182632,-82.634819031,0.000000000,-19.965000153,8.912475586
1748598496.461240,46.962000000,0.000000000,-1000.073669434,0.000000000,0.000000000,-17.296182632,-84.847351074,0.000000000,-19.965000153,8.912475586
1748598496.463654,46.965000000,0.000000000,-1000.073669434,0.000000000,0.000000000,-17.296182632,-84.847351074,0.000000000,-19.965000153,8.912475586
1748598496.466027,46.967000000,0.000000000,-1000.073669434,0.000000000,0.000000000,-17.296182632,-84.847351074,0.000000000,-19.965000153,8.912475586
1748598496.468425,46.970000000,0.000000000,-1000.073669434,0.000000000,0.000000000,-17.282680511,-86.642677307,0.000000000,-19.965000153,8.912549019
1748598496.470821,46.972000000,0.000000000,-1000.073669434,0.000000000,0.000000000,-17.282680511,-84.436630249,0.000000000,-19.965000153,8.912549019
1748598496.473209,46.974000000,0.000000000,-1000.073669434,0.000000000,0.000000000,-17.282680511,-84.436630249,0.000000000,-19.965000153,8.912549019
1748598496.475605,46.977000000,0.000000000,-1000.073669434,0.000000000,0.000000000,-17.282680511,-84.436630249,0.000000000,-19.965000153,8.912549019
1748598496.477986,46.979000000,0.000000000,-1000.073669434,0.000000000,0.000000000,-17.282680511,-84.436630249,0.000000000,-19.965000153,8.912549019
1748598496.480374,46.982000000,0.000000000,-1000.073669434,0.000000000,0.000000000,-17.282680511,-84.436630249,0.000000000,-19.965000153,8.912549019
1748598496.482795,46.984000000,0.000000000,-1000.073669434,0.000000000,0.000000000,-17.282680511,-84.436630249,0.000000000,-19.965000153,8.912549019
1748598496.485160,46.986000000,0.000000000,-1000.073669434,0.000000000,0.000000000,-17.282680511,-84.436630249,0.000000000,-19.965000153,8.912549019
1748598496.487576,46.989000000,0.000000000,-1000.073669434,0.000000000,0.000000000,-17.282680511,-84.436630249,0.000000000,-19.965000153,8.912549019
1748598496.489979,46.991000000,0.000000000,-1000.073669434,0.000000000,0.000000000,-17.282680511,-84.436630249,0.000000000,-19.965000153,8.912549019
1748598496.492377,46.994000000,0.000000000,-1000.073669434,0.000000000,0.000000000,-17.282680511,-84.436630249,0.000000000,-19.965000153,8.912549019
1748598496.494769,46.996000000,0.000000000,-1000.073669434,0.000000000,0.000000000,-17.282680511,-84.436630249,0.000000000,-19.965000153,8.912549019
1748598496.497325,46.998000000,0.000000000,-1000.073669434,0.000000000,0.000000000,-17.282680511,-84.436630249,0.000000000,-19.965000153,8.912549019
1748598496.499693,47.001000000,0.000000000,-1000.073669434,0.000000000,0.000000000,-17.282680511,-84.436630249,0.000000000,-19.965000153,8.912549019
1748598496.502080,47.003000000,0.000000000,-1000.073669434,0.000000000,0.000000000,-17.282680511,-84.436630249,0.000000000,-19.965000153,8.912549019
1748598496.504465,47.006000000,0.000000000,-1000.073669434,0.000000000,0.000000000,-17.282680511,-84.436630249,0.000000000,-19.965000153,8.912549019
1748598496.506855,47.008000000,0.000000000,-1000.073669434,0.000000000,0.000000000,-17.282680511,-84.436630249,0.000000000,-19.965000153,8.912549019
1748598496.509236,47.010000000,0.000000000,-1000.073669434,0.000000000,0.000000000,-17.282680511,-84.436630249,0.000000000,-19.965000153,8.912549019
1748598496.511733,47.013000000,0.000000000,-1000.073669434,0.000000000,0.000000000,-17.269182205,-86.224075317,0.000000000,-19.965000153,8.912622452
1748598496.514181,47.015000000,0.000000000,-1000.073669434,0.000000000,0.000000000,-17.269182205,-84.026023865,0.000000000,-19.965000153,8.912622452
1748598496.516646,47.018000000,0.000000000,-1000.073669434,0.000000000,0.000000000,-17.282680511,-82.277343750,0.000000000,-19.965000153,8.912549019
1748598496.519022,47.020000000,0.000000000,-1000.073669434,0.000000000,0.000000000,-17.282680511,-84.436630249,0.000000000,-19.965000153,8.912549019
1748598496.521411,47.023000000,0.000000000,-1000.073669434,0.000000000,0.000000000,-17.282680511,-84.436630249,0.000000000,-19.965000153,8.912549019
1748598496.523782,47.025000000,0.000000000,-1000.073669434,0.000000000,0.000000000,-17.282680511,-84.436630249,0.000000000,-19.965000153,8.912549019
1748598496.526142,47.027000000,0.000000000,-1000.073669434,0.000000000,0.000000000,-17.282680511,-84.436630249,0.000000000,-19.965000153,8.912549019
1748598496.528522,47.030000000,0.000000000,-1000.073669434,0.000000000,0.000000000,-17.282680511,-84.436630249,0.000000000,-19.965000153,8.912549019
1748598496.530939,47.032000000,0.000000000,-1000.073669434,0.000000000,0.000000000,-17.282680511,-84.436630249,0.000000000,-19.965000153,8.912549019
1748598496.533294,47.035000000,0.000000000,-1000.073669434,0.000000000,0.000000000,-17.282680511,-84.436630249,0.000000000,-19.965000153,8.912549019
1748598496.535704,47.037000000,0.000000000,-1000.073669434,0.000000000,0.000000000,-17.282680511,-84.436630249,0.000000000,-19.965000153,8.912549019
1748598496.538091,47.039000000,0.000000000,-1000.073669434,0.000000000,0.000000000,-17.282680511,-84.436630249,0.000000000,-19.965000153,8.912549019
1748598496.540460,47.042000000,0.000000000,-1000.073669434,0.000000000,0.000000000,-17.282680511,-84.436630249,0.000000000,-19.965000153,8.912549019
1748598496.542828,47.044000000,0.000000000,-1000.073669434,0.000000000,0.000000000,-17.282680511,-84.436630249,0.000000000,-19.965000153,8.912549019
1748598496.545206,47.046000000,0.000000000,-1000.073669434,0.000000000,0.000000000,-17.282680511,-84.436630249,0.000000000,-19.965000153,8.912549019
1748598496.547642,47.049000000,0.000000000,-1000.073669434,0.000000000,0.000000000,-17.282680511,-84.436630249,0.000000000,-19.965000153,8.912549019
1748598496.550084,47.051000000,0.000000000,-1000.073669434,0.000000000,0.000000000,-17.282680511,-84.436630249,0.000000000,-19.965000153,8.912549019
1748598496.552474,47.054000000,0.000000000,-1000.073669434,0.000000000,0.000000000,-17.282680511,-84.436630249,0.000000000,-19.965000153,8.912549019
1748598496.554853,47.056000000,0.000000000,-1000.073669434,0.000000000,0.000000000,-17.282680511,-84.436630249,0.000000000,-19.965000153,8.912549019
1748598496.557219,47.058000000,0.000000000,-1000.073669434,0.000000000,0.000000000,-17.282680511,-84.436630249,0.000000000,-19.965000153,8.912549019
1748598496.559628,47.061000000,0.000000000,-1000.073669434,0.000000000,0.000000000,-17.282680511,-84.436630249,0.000000000,-19.965000153,8.912549019
1748598496.562086,47.063000000,0.000000000,-1000.073669434,0.000000000,0.000000000,-17.282680511,-84.436630249,0.000000000,-19.965000153,8.912549019
1748598496.564575,47.066000000,0.000000000,-1000.073669434,0.000000000,0.000000000,-17.282680511,-84.436630249,0.000000000,-19.965000153,8.912549019
1748598496.566996,47.068000000,0.000000000,-1000.073669434,0.000000000,0.000000000,-17.282680511,-84.436630249,0.000000000,-19.965000153,8.912549019
1748598496.569397,47.071000000,0.000000000,-1000.073669434,0.000000000,0.000000000,-17.282680511,-84.436630249,0.000000000,-19.965000153,8.912549019
1748598496.571807,47.073000000,0.000000000,-1000.073669434,0.000000000,0.000000000,-17.282680511,-84.436630249,0.000000000,-19.965000153,8.912549019
1748598496.574192,47.075000000,0.000000000,-1000.073669434,0.000000000,0.000000000,-17.282680511,-84.436630249,0.000000000,-19.965000153,8.912549019
1748598496.576663,47.078000000,0.000000000,-1000.073669434,0.000000000,0.000000000,-17.282680511,-84.436630249,0.000000000,-19.965000153,8.912549019
1748598496.579035,47.080000000,0.000000000,-1000.073669434,0.000000000,0.000000000,-17.282680511,-84.436630249,0.000000000,-19.965000153,8.912549019
1748598496.581485,47.083000000,0.000000000,-1000.073669434,0.000000000,0.000000000,-17.282680511,-84.436630249,0.000000000,-19.965000153,8.912549019
1748598496.583840,47.085000000,0.000000000,-1000.073669434,0.000000000,0.000000000,-17.282680511,-84.436630249,0.000000000,-19.965000153,8.912549019
1748598496.586185,47.087000000,0.000000000,-1000.073669434,0.000000000,0.000000000,-17.282680511,-84.436630249,0.000000000,-19.965000153,8.912549019
1748598496.588570,47.090000000,0.000000000,-1000.073669434,0.000000000,0.000000000,-17.282680511,-84.436630249,0.000000000,-19.965000153,8.912549019
1748598496.590949,47.092000000,0.000000000,-1000.073669434,0.000000000,0.000000000,-17.282680511,-84.436630249,0.000000000,-19.965000153,8.912549019
1748598496.593314,47.095000000,0.000000000,-1000.073669434,0.000000000,0.000000000,-17.269182205,-86.239791870,0.000000000,-19.965000153,8.912622452
1748598496.595688,47.097000000,0.000000000,-1000.073669434,0.000000000,0.000000000,-17.269182205,-84.026023865,0.000000000,-19.965000153,8.912622452
1748598496.598317,47.099000000,0.000000000,-1000.073669434,0.000000000,0.000000000,-17.269182205,-84.026023865,0.000000000,-19.965000153,8.912622452
1748598496.600603,47.102000000,0.000000000,-1000.073669434,0.000000000,0.000000000,-17.269182205,-84.026023865,0.000000000,-19.965000153,8.912622452
1748598496.602997,47.104000000,0.000000000,-1000.073669434,0.000000000,0.000000000,-17.269182205,-84.026023865,0.000000000,-19.965000153,8.912622452
1748598496.605382,47.107000000,0.000000000,-1000.073669434,0.000000000,0.000000000,-17.269182205,-84.026023865,0.000000000,-19.965000153,8.912622452
1748598496.607807,47.109000000,0.000000000,-1000.073669434,0.000000000,0.000000000,-17.282680511,-82.237655640,0.000000000,-19.965000153,8.912549019
1748598496.610241,47.111000000,0.000000000,-1000.073669434,0.000000000,0.000000000,-17.282680511,-84.436630249,0.000000000,-19.965000153,8.912549019
1748598496.612729,47.114000000,0.000000000,-1000.073669434,0.000000000,0.000000000,-17.282680511,-84.436630249,0.000000000,-19.965000153,8.912549019
1748598496.615308,47.116000000,0.000000000,-1000.073669434,0.000000000,0.000000000,-17.282680511,-84.436630249,0.000000000,-19.965000153,8.912549019
1748598496.617701,47.119000000,0.000000000,-1000.073669434,0.000000000,0.000000000,-17.282680511,-84.436630249,0.000000000,-19.965000153,8.912549019
1748598496.620050,47.121000000,0.000000000,-1000.073669434,0.000000000,0.000000000,-17.269182205,-86.188858032,0.000000000,-19.965000153,8.912622452
1748598496.622436,47.124000000,0.000000000,-1000.073669434,0.000000000,0.000000000,-17.269182205,-84.026023865,0.000000000,-19.965000153,8.912622452
1748598496.624754,47.126000000,0.000000000,-1000.073669434,0.000000000,0.000000000,-17.269182205,-84.026023865,0.000000000,-19.965000153,8.912622452
1748598496.627119,47.128000000,0.000000000,-1000.073669434,0.000000000,0.000000000,-17.269182205,-84.026023865,0.000000000,-19.965000153,8.912622452
1748598496.629556,47.131000000,0.000000000,-1000.073669434,0.000000000,0.000000000,-17.269182205,-84.026023865,0.000000000,-19.965000153,8.912622452
1748598496.631926,47.133000000,0.000000000,-1000.073669434,0.000000000,0.000000000,-17.269182205,-84.026023865,0.000000000,-19.965000153,8.912622452
1748598496.634334,47.136000000,0.000000000,-1000.073669434,0.000000000,0.000000000,-17.269182205,-84.026023865,0.000000000,-19.965000153,8.912622452
1748598496.636673,47.138000000,0.000000000,-1000.073669434,0.000000000,0.000000000,-17.269182205,-84.026023865,0.000000000,-19.965000153,8.912622452
1748598496.639047,47.140000000,0.000000000,-1000.073669434,0.000000000,0.000000000,-17.269182205,-84.026023865,0.000000000,-19.965000153,8.912622452
1748598496.641428,47.143000000,0.000000000,-1000.073669434,0.000000000,0.000000000,-17.269182205,-84.026023865,0.000000000,-19.965000153,8.912622452
1748598496.643802,47.145000000,0.000000000,-1000.073669434,0.000000000,0.000000000,-17.269182205,-84.026023865,0.000000000,-19.965000153,8.912622452
1748598496.646210,47.147000000,0.000000000,-1000.073669434,0.000000000,0.000000000,-17.269182205,-84.026023865,0.000000000,-19.965000153,8.912622452
1748598496.648605,47.150000000,0.000000000,-1000.073669434,0.000000000,0.000000000,-17.269182205,-84.026023865,0.000000000,-19.965000153,8.912622452
1748598496.650979,47.152000000,0.000000000,-1000.073669434,0.000000000,0.000000000,-17.269182205,-84.026023865,0.000000000,-19.965000153,8.912622452
1748598496.653343,47.155000000,0.000000000,-1000.073669434,0.000000000,0.000000000,-17.269182205,-84.026023865,0.000000000,-19.965000153,8.912622452
1748598496.655742,47.157000000,0.000000000,-1000.073669434,0.000000000,0.000000000,-17.255680084,-85.839988708,0.000000000,-19.965000153,8.912695885
1748598496.658108,47.159000000,0.000000000,-1000.073669434,0.000000000,0.000000000,-17.255680084,-83.615303040,0.000000000,-19.965000153,8.912695885
1748598496.660568,47.162000000,0.000000000,-1000.073669434,0.000000000,0.000000000,-17.255680084,-83.615303040,0.000000000,-19.965000153,8.912695885
1748598496.663055,47.164000000,0.000000000,-1000.073669434,0.000000000,0.000000000,-17.255680084,-83.615303040,0.000000000,-19.965000153,8.912695885
1748598496.665422,47.167000000,0.000000000,-1000.073669434,0.000000000,0.000000000,-17.255680084,-83.615303040,0.000000000,-19.965000153,8.912695885
1748598496.667886,47.169000000,0.000000000,-1000.073669434,0.000000000,0.000000000,-17.255680084,-83.615303040,0.000000000,-19.965000153,8.912695885
1748598496.670317,47.172000000,0.000000000,-1000.073669434,0.000000000,0.000000000,-17.255680084,-83.615303040,0.000000000,-19.965000153,8.912695885
1748598496.672808,47.174000000,0.000000000,-1000.073669434,0.000000000,0.000000000,-17.255680084,-83.615303040,0.000000000,-19.965000153,8.912695885
1748598496.675133,47.176000000,0.000000000,-1000.073669434,0.000000000,0.000000000,-17.255680084,-83.615303040,0.000000000,-19.965000153,8.912695885
1748598496.677497,47.179000000,0.000000000,-1000.073669434,0.000000000,0.000000000,-17.255680084,-83.615303040,0.000000000,-19.965000153,8.912695885
1748598496.679928,47.181000000,0.000000000,-1000.073669434,0.000000000,0.000000000,-17.255680084,-83.615303040,0.000000000,-19.965000153,8.912695885
1748598496.682301,47.184000000,0.000000000,-1000.073669434,0.000000000,0.000000000,-17.255680084,-83.615303040,0.000000000,-19.965000153,8.912695885
1748598496.684708,47.186000000,0.000000000,-1000.073669434,0.000000000,0.000000000,-17.255680084,-83.615303040,0.000000000,-19.965000153,8.912695885
1748598496.687047,47.188000000,0.000000000,-1000.073669434,0.000000000,0.000000000,-17.255680084,-83.615303040,0.000000000,-19.965000153,8.912695885
1748598496.689408,47.191000000,0.000000000,-1000.073669434,0.000000000,0.000000000,-17.255680084,-83.615303040,0.000000000,-19.965000153,8.912695885
1748598496.691806,47.193000000,0.000000000,-1000.073669434,0.000000000,0.000000000,-17.255680084,-83.615303040,0.000000000,-19.965000153,8.912695885
1748598496.694182,47.195000000,0.000000000,-1000.073669434,0.000000000,0.000000000,-17.255680084,-83.615303040,0.000000000,-19.965000153,8.912695885
1748598496.696609,47.198000000,0.000000000,-1000.073669434,0.000000000,0.000000000,-17.255680084,-83.615303040,0.000000000,-19.965000153,8.912695885
1748598496.699025,47.200000000,0.000000000,-1000.073669434,0.000000000,0.000000000,-17.255680084,-83.615303040,0.000000000,-19.965000153,8.912695885
1748598496.701368,47.203000000,0.000000000,-1000.073669434,0.000000000,0.000000000,-17.255680084,-83.615303040,0.000000000,-19.965000153,8.912695885
1748598496.703732,47.205000000,0.000000000,-1000.073669434,0.000000000,0.000000000,-17.255680084,-83.615303040,0.000000000,-19.965000153,8.912695885
1748598496.706108,47.207000000,0.000000000,-1000.073669434,0.000000000,0.000000000,-17.255680084,-83.615303040,0.000000000,-19.965000153,8.912695885
1748598496.708516,47.210000000,0.000000000,-1000.073669434,0.000000000,0.000000000,-17.255680084,-83.615303040,0.000000000,-19.965000153,8.912695885
1748598496.710872,47.212000000,0.000000000,-1000.073669434,0.000000000,0.000000000,-17.255680084,-83.615303040,0.000000000,-19.965000153,8.912695885
1748598496.713363,47.215000000,0.000000000,-1000.073669434,0.000000000,0.000000000,-17.255680084,-83.615303040,0.000000000,-19.965000153,8.912695885
1748598496.715954,47.217000000,0.000000000,-1000.073669434,0.000000000,0.000000000,-17.255680084,-83.615303040,0.000000000,-19.965000153,8.912695885
1748598496.718271,47.219000000,0.000000000,-1000.073669434,0.000000000,0.000000000,-17.255680084,-83.615303040,0.000000000,-19.965000153,8.912695885
1748598496.720612,47.222000000,0.000000000,-1000.073669434,0.000000000,0.000000000,-17.255680084,-83.615303040,0.000000000,-19.965000153,8.912695885
1748598496.723003,47.224000000,0.000000000,-1000.073669434,0.000000000,0.000000000,-17.255680084,-83.615303040,0.000000000,-19.965000153,8.912695885
1748598496.725373,47.227000000,0.000000000,-1000.073669434,0.000000000,0.000000000,-17.255680084,-83.615303040,0.000000000,-19.965000153,8.912695885
1748598496.727743,47.229000000,0.000000000,-1000.073669434,0.000000000,0.000000000,-17.255680084,-83.615303040,0.000000000,-19.965000153,8.912695885
1748598496.730081,47.231000000,0.000000000,-1000.073669434,0.000000000,0.000000000,-17.269182205,-81.801338196,0.000000000,-19.965000153,8.912622452
1748598496.732460,47.234000000,0.000000000,-1000.073669434,0.000000000,0.000000000,-17.269182205,-84.026023865,0.000000000,-19.965000153,8.912622452
1748598496.734823,47.236000000,0.000000000,-1000.073669434,0.000000000,0.000000000,-17.255680084,-85.834365845,0.000000000,-19.965000153,8.912695885
1748598496.737195,47.238000000,0.000000000,-1000.073669434,0.000000000,0.000000000,-17.255680084,-83.615303040,0.000000000,-19.965000153,8.912695885
1748598496.739565,47.241000000,0.000000000,-1000.073669434,0.000000000,0.000000000,-17.255680084,-83.615303040,0.000000000,-19.965000153,8.912695885
1748598496.741935,47.243000000,0.000000000,-1000.073669434,0.000000000,0.000000000,-17.269182205,-81.813491821,0.000000000,-19.965000153,8.912622452
1748598496.744322,47.246000000,0.000000000,-1000.073669434,0.000000000,0.000000000,-17.269182205,-84.026023865,0.000000000,-19.965000153,8.912622452
1748598496.746731,47.248000000,0.000000000,-1000.073669434,0.000000000,0.000000000,-17.269182205,-84.026023865,0.000000000,-19.965000153,8.912622452
1748598496.749138,47.250000000,0.000000000,-1000.073669434,0.000000000,0.000000000,-17.269182205,-84.026023865,0.000000000,-19.965000153,8.912622452
1748598496.751527,47.253000000,0.000000000,-1000.073669434,0.000000000,0.000000000,-17.269182205,-84.026023865,0.000000000,-19.965000153,8.912622452
1748598496.753927,47.255000000,0.000000000,-1000.073669434,0.000000000,0.000000000,-17.269182205,-84.026023865,0.000000000,-19.965000153,8.912622452
1748598496.756297,47.257000000,0.000000000,-1000.073669434,0.000000000,0.000000000,-17.269182205,-84.026023865,0.000000000,-19.965000153,8.912622452
1748598496.758668,47.260000000,0.000000000,-1000.073669434,0.000000000,0.000000000,-17.269182205,-84.026023865,0.000000000,-19.965000153,8.912622452
1748598496.761032,47.262000000,0.000000000,-1000.073669434,0.000000000,0.000000000,-17.269182205,-84.026023865,0.000000000,-19.965000153,8.912622452
1748598496.763502,47.265000000,0.000000000,-1000.073669434,0.000000000,0.000000000,-17.269182205,-84.026023865,0.000000000,-19.965000153,8.912622452
1748598496.765937,47.267000000,0.000000000,-1000.073669434,0.000000000,0.000000000,-17.269182205,-84.026023865,0.000000000,-19.965000153,8.912622452
1748598496.768276,47.269000000,0.000000000,-1000.073669434,0.000000000,0.000000000,-17.269182205,-84.026023865,0.000000000,-19.965000153,8.912622452
1748598496.770629,47.272000000,0.000000000,-1000.073669434,0.000000000,0.000000000,-17.269182205,-84.026023865,0.000000000,-19.965000153,8.912622452
1748598496.772969,47.274000000,0.000000000,-1000.073669434,0.000000000,0.000000000,-17.269182205,-84.026023865,0.000000000,-19.965000153,8.912622452
1748598496.775367,47.277000000,0.000000000,-1000.073669434,0.000000000,0.000000000,-17.269182205,-84.026023865,0.000000000,-19.965000153,8.912622452
1748598496.777753,47.279000000,0.000000000,-1000.073669434,0.000000000,0.000000000,-17.269182205,-84.026023865,0.000000000,-19.965000153,8.912622452
1748598496.780108,47.281000000,0.000000000,-1000.073669434,0.000000000,0.000000000,-17.269182205,-84.026023865,0.000000000,-19.965000153,8.912622452
1748598496.782453,47.284000000,0.000000000,-1000.073669434,0.000000000,0.000000000,-17.269182205,-84.026023865,0.000000000,-19.965000153,8.912622452
1748598496.784821,47.286000000,0.000000000,-1000.073669434,0.000000000,0.000000000,-17.269182205,-84.026023865,0.000000000,-19.965000153,8.912622452
1748598496.787179,47.288000000,0.000000000,-1000.073669434,0.000000000,0.000000000,-17.269182205,-84.026023865,0.000000000,-19.965000153,8.912622452
1748598496.789561,47.291000000,0.000000000,-1000.073669434,0.000000000,0.000000000,-17.269182205,-84.026023865,0.000000000,-19.965000153,8.912622452
1748598496.791920,47.293000000,0.000000000,-1000.073669434,0.000000000,0.000000000,-17.269182205,-84.026023865,0.000000000,-19.965000153,8.912622452
1748598496.794276,47.295000000,0.000000000,-1000.073669434,0.000000000,0.000000000,-17.269182205,-84.026023865,0.000000000,-19.965000153,8.912622452
1748598496.796647,47.298000000,0.000000000,-1000.073669434,0.000000000,0.000000000,-17.269182205,-84.026023865,0.000000000,-19.965000153,8.912622452
1748598496.799090,47.300000000,0.000000000,-1000.073669434,0.000000000,0.000000000,-17.269182205,-84.026023865,0.000000000,-19.965000153,8.912622452
1748598496.801428,47.303000000,0.000000000,-1000.073669434,0.000000000,0.000000000,-17.269182205,-84.026023865,0.000000000,-19.965000153,8.912622452
1748598496.803821,47.305000000,0.000000000,-1000.073669434,0.000000000,0.000000000,-17.269182205,-84.026023865,0.000000000,-19.965000153,8.912622452
1748598496.806234,47.307000000,0.000000000,-1000.073669434,0.000000000,0.000000000,-17.269182205,-84.026023865,0.000000000,-19.965000153,8.912622452
1748598496.808664,47.310000000,0.000000000,-1000.073669434,0.000000000,0.000000000,-17.269182205,-84.026023865,0.000000000,-19.965000153,8.912622452
1748598496.811028,47.312000000,0.000000000,-1000.073669434,0.000000000,0.000000000,-17.269182205,-84.026023865,0.000000000,-19.965000153,8.912622452
1748598496.813434,47.315000000,0.000000000,-1000.073669434,0.000000000,0.000000000,-17.269182205,-84.026023865,0.000000000,-19.965000153,8.912622452
1748598496.815892,47.317000000,0.000000000,-1000.073669434,0.000000000,0.000000000,-17.269182205,-84.026023865,0.000000000,-19.965000153,8.912622452
1748598496.818192,47.319000000,0.000000000,-1000.073669434,0.000000000,0.000000000,-17.269182205,-84.026023865,0.000000000,-19.965000153,8.912622452
1748598496.820588,47.322000000,0.000000000,-1000.073669434,0.000000000,0.000000000,-17.269182205,-84.026023865,0.000000000,-19.965000153,8.912622452
1748598496.822974,47.324000000,0.000000000,-1000.073669434,0.000000000,0.000000000,-17.269182205,-84.026023865,0.000000000,-19.965000153,8.912622452
1748598496.825344,47.327000000,0.000000000,-1000.073669434,0.000000000,0.000000000,-17.269182205,-84.026023865,0.000000000,-19.965000153,8.912622452
1748598496.827750,47.329000000,0.000000000,-1000.073669434,0.000000000,0.000000000,-17.269182205,-84.026023865,0.000000000,-19.965000153,8.912622452
1748598496.830180,47.331000000,0.000000000,-1000.073669434,0.000000000,0.000000000,-17.269182205,-84.026023865,0.000000000,-19.965000153,8.912622452
1748598496.832599,47.334000000,0.000000000,-1000.073669434,0.000000000,0.000000000,-17.269182205,-84.026023865,0.000000000,-19.965000153,8.912622452
1748598496.834976,47.336000000,0.000000000,-1000.073669434,0.000000000,0.000000000,-17.269182205,-84.026023865,0.000000000,-19.965000153,8.912622452
1748598496.837396,47.339000000,0.000000000,-1000.073669434,0.000000000,0.000000000,-17.269182205,-84.026023865,0.000000000,-19.965000153,8.912622452
1748598496.839764,47.341000000,0.000000000,-1000.073669434,0.000000000,0.000000000,-17.269182205,-84.026023865,0.000000000,-19.965000153,8.912622452
1748598496.842130,47.343000000,0.000000000,-1000.073669434,0.000000000,0.000000000,-17.269182205,-84.026023865,0.000000000,-19.965000153,8.912622452
1748598496.844509,47.346000000,0.000000000,-1000.073669434,0.000000000,0.000000000,-17.269182205,-84.026023865,0.000000000,-19.965000153,8.912622452
1748598496.846947,47.348000000,0.000000000,-1000.073669434,0.000000000,0.000000000,-17.269182205,-84.026023865,0.000000000,-19.965000153,8.912622452
1748598496.849341,47.351000000,0.000000000,-1000.073669434,0.000000000,0.000000000,-17.269182205,-84.026023865,0.000000000,-19.965000153,8.912622452
1748598496.851724,47.353000000,0.000000000,-1000.073669434,0.000000000,0.000000000,-17.269182205,-84.026023865,0.000000000,-19.965000153,8.912622452
1748598496.854128,47.355000000,0.000000000,-1000.073669434,0.000000000,0.000000000,-17.269182205,-84.026023865,0.000000000,-19.965000153,8.912622452
1748598496.856524,47.358000000,0.000000000,-1000.073669434,0.000000000,0.000000000,-17.269182205,-84.026023865,0.000000000,-19.965000153,8.912622452
1748598496.858867,47.360000000,0.000000000,-1000.073669434,0.000000000,0.000000000,-17.269182205,-84.026023865,0.000000000,-19.965000153,8.912622452
1748598496.861300,47.362000000,0.000000000,-1000.073669434,0.000000000,0.000000000,-17.269182205,-84.026023865,0.000000000,-19.965000153,8.912622452
1748598496.863801,47.365000000,0.000000000,-1000.073669434,0.000000000,0.000000000,-17.269182205,-84.026023865,0.000000000,-19.965000153,8.912622452
1748598496.866250,47.367000000,0.000000000,-1000.073669434,0.000000000,0.000000000,-17.269182205,-84.026023865,0.000000000,-19.965000153,8.912622452
1748598496.868666,47.370000000,0.000000000,-1000.073669434,0.000000000,0.000000000,-17.269182205,-84.026023865,0.000000000,-19.965000153,8.912622452
1748598496.871031,47.372000000,0.000000000,-1000.073669434,0.000000000,0.000000000,-17.269182205,-84.026023865,0.000000000,-19.965000153,8.912622452
1748598496.873410,47.375000000,0.000000000,-1000.073669434,0.000000000,0.000000000,-17.269182205,-84.026023865,0.000000000,-19.965000153,8.912622452
1748598496.875742,47.377000000,0.000000000,-1000.073669434,0.000000000,0.000000000,-17.269182205,-84.026023865,0.000000000,-19.965000153,8.912622452
1748598496.878119,47.379000000,0.000000000,-1000.073669434,0.000000000,0.000000000,-17.269182205,-84.026023865,0.000000000,-19.965000153,8.912622452
1748598496.880525,47.382000000,0.000000000,-1000.073669434,0.000000000,0.000000000,-17.269182205,-84.026023865,0.000000000,-19.965000153,8.912622452
1748598496.882915,47.384000000,0.000000000,-1000.073669434,0.000000000,0.000000000,-17.269182205,-84.026023865,0.000000000,-19.965000153,8.912622452
1748598496.885284,47.387000000,0.000000000,-1000.073669434,0.000000000,0.000000000,-17.269182205,-84.026023865,0.000000000,-19.965000153,8.912622452
1748598496.887670,47.389000000,0.000000000,-1000.073669434,0.000000000,0.000000000,-17.269182205,-84.026023865,0.000000000,-19.965000153,8.912622452
1748598496.890031,47.391000000,0.000000000,-1000.073669434,0.000000000,0.000000000,-17.269182205,-84.026023865,0.000000000,-19.965000153,8.912622452
1748598496.892399,47.394000000,0.000000000,-1000.073669434,0.000000000,0.000000000,-17.269182205,-84.026023865,0.000000000,-19.965000153,8.912622452
1748598496.894765,47.396000000,0.000000000,-1000.073669434,0.000000000,0.000000000,-17.269182205,-84.026023865,0.000000000,-19.965000153,8.912622452
1748598496.897235,47.398000000,0.000000000,-1000.073669434,0.000000000,0.000000000,-17.269182205,-84.026023865,0.000000000,-19.965000153,8.912622452
1748598496.899643,47.401000000,0.000000000,-1000.073669434,0.000000000,0.000000000,-17.269182205,-84.026023865,0.000000000,-19.965000153,8.912622452
1748598496.902046,47.403000000,0.000000000,-1000.073669434,0.000000000,0.000000000,-17.269182205,-84.026023865,0.000000000,-19.965000153,8.912622452
1748598496.904439,47.406000000,0.000000000,-1000.073669434,0.000000000,0.000000000,-17.269182205,-84.026023865,0.000000000,-19.965000153,8.912622452
1748598496.906833,47.408000000,0.000000000,-1000.073669434,0.000000000,0.000000000,-17.269182205,-84.026023865,0.000000000,-19.965000153,8.912622452
1748598496.909239,47.410000000,0.000000000,-1000.073669434,0.000000000,0.000000000,-17.269182205,-84.026023865,0.000000000,-19.965000153,8.912622452
1748598496.911593,47.413000000,0.000000000,-1000.073669434,0.000000000,0.000000000,-17.269182205,-84.026023865,0.000000000,-19.965000153,8.912622452
1748598496.913940,47.415000000,0.000000000,-1000.073669434,0.000000000,0.000000000,-17.269182205,-84.026023865,0.000000000,-19.965000153,8.912622452
1748598496.916318,47.418000000,0.000000000,-1000.073669434,0.000000000,0.000000000,-17.269182205,-84.026023865,0.000000000,-19.965000153,8.912622452
1748598496.918701,47.420000000,0.000000000,-1000.073669434,0.000000000,0.000000000,-17.269182205,-84.026023865,0.000000000,-19.965000153,8.912622452
1748598496.921070,47.422000000,0.000000000,-1000.073669434,0.000000000,0.000000000,-17.269182205,-84.026023865,0.000000000,-19.965000153,8.912622452
1748598496.923442,47.425000000,0.000000000,-1000.073669434,0.000000000,0.000000000,-17.269182205,-84.026023865,0.000000000,-19.965000153,8.912622452
1748598496.925813,47.427000000,0.000000000,-1000.073669434,0.000000000,0.000000000,-17.269182205,-84.026023865,0.000000000,-19.965000153,8.912622452
1748598496.928200,47.429000000,0.000000000,-1000.073669434,0.000000000,0.000000000,-17.269182205,-84.026023865,0.000000000,-19.965000153,8.912622452
1748598496.930599,47.432000000,0.000000000,-1000.073669434,0.000000000,0.000000000,-17.269182205,-84.026023865,0.000000000,-19.965000153,8.912622452
1748598496.932984,47.434000000,0.000000000,-1000.073669434,0.000000000,0.000000000,-17.269182205,-84.026023865,0.000000000,-19.965000153,8.912622452
1748598496.935346,47.437000000,0.000000000,-1000.073669434,0.000000000,0.000000000,-17.269182205,-84.026023865,0.000000000,-19.965000153,8.912622452
1748598496.937751,47.439000000,0.000000000,-1000.073669434,0.000000000,0.000000000,-17.269182205,-84.026023865,0.000000000,-19.965000153,8.912622452
